,SEARCHVAL,BLK_NO,ROAD_NAME,BUILDING,ADDRESS,POSTAL,X,Y,LATITUDE,LONGITUDE,LONGTITUDE,address
0,DBS DHOBY GHAUT MRT STATION,11,ORCHARD ROAD,DBS DHOBY GHAUT MRT STATION,11 ORCHARD ROAD DBS DHOBY GHAUT MRT STATION SINGAPORE 238826,238826,29431.3500115182,31227.922892984,1.29868872290409,103.846179896647,103.846179896647,Dhoby Ghaut
1,DHOBY GHAUT MRT STATION (NS24),11,ORCHARD ROAD,DHOBY GHAUT MRT STATION (NS24),11 ORCHARD ROAD DHOBY GHAUT MRT STATION (NS24) SINGAPORE 238826,238826,29423.9804536467,31229.3163704202,1.29870132536119,103.846113677951,103.846113677951,Dhoby Ghaut
2,UOB DHOBY GHAUT MRT STATION,11,ORCHARD ROAD,UOB DHOBY GHAUT MRT STATION,11 ORCHARD ROAD UOB DHOBY GHAUT MRT STATION SINGAPORE 238826,238826,29428.7041659895,31223.6895522457,1.29865043818251,103.846156122354,103.846156122354,Dhoby Ghaut
3,OCBC DHOBY GHAUT MRT STATION,11,ORCHARD ROAD,OCBC DHOBY GHAUT MRT STATION,11 ORCHARD ROAD OCBC DHOBY GHAUT MRT STATION SINGAPORE 238826,238826,29432.9375067279,31224.2187274061,1.29865522366188,103.846194160829,103.846194160829,Dhoby Ghaut
4,DHOBY GHAUT MRT STATION (CC1),13,ORCHARD ROAD,DHOBY GHAUT MRT STATION (CC1),13 ORCHARD ROAD DHOBY GHAUT MRT STATION (CC1) SINGAPORE 238893,238893,29443.8824096406,31252.5723822247,1.29891164362677,103.84629250696,103.84629250696,Dhoby Ghaut
5,KLCII DHOBY GHAUT CAMPUS,36,PRINSEP STREET,KLCII DHOBY GHAUT CAMPUS,36 PRINSEP STREET KLCII DHOBY GHAUT CAMPUS SINGAPORE 188648,188648,29820.8925754149,31281.4514287058,1.29917279578375,103.849680113122,103.849680113122,Dhoby Ghaut
6,MDIS DHOBY GHAUT,20,ORCHARD ROAD,MDIS DHOBY GHAUT,20 ORCHARD ROAD MDIS DHOBY GHAUT SINGAPORE 238830,238830,29496.0425298167,31264.8113322444,1.29902232591852,103.84676118949,103.84676118949,Dhoby Ghaut
7,UOB DHOBY GHAUT NEL MRT STATION,60,ORCHARD ROAD,UOB DHOBY GHAUT NEL MRT STATION,60 ORCHARD ROAD UOB DHOBY GHAUT NEL MRT STATION SINGAPORE 238889,238889,29360.0988146318,31313.6808988396,1.29946429130549,103.845539676638,103.845539676638,Dhoby Ghaut
8,DHOBY GHAUT CARPARK,60,ORCHARD ROAD,DHOBY GHAUT CARPARK,60 ORCHARD ROAD DHOBY GHAUT CARPARK SINGAPORE 238889,238889,29357.4663172839,31306.8366115578,1.29940239409636,103.845516022173,103.845516022173,Dhoby Ghaut
9,DHOBY GHAUT MRT STATION (NE6),60,ORCHARD ROAD,DHOBY GHAUT MRT STATION (NE6),60 ORCHARD ROAD DHOBY GHAUT MRT STATION (NE6) SINGAPORE 238889,238889,29354.4079191377,31340.2508916464,1.29970458121203,103.845488542541,103.845488542541,Dhoby Ghaut
10,BAYFRONT AVENUE TOWARDS MARINA BOULEVARD - ERP(69),,NIL,BAYFRONT AVENUE TOWARDS MARINA BOULEVARD - ERP(69),BAYFRONT AVENUE TOWARDS MARINA BOULEVARD - ERP(69),NIL,31066.3721608948,29755.2538799457,1.28537030528984,103.860871154701,103.860871154701,Bayfront
11,BAYFRONT AVENUE TOWARDS RAFFLES AVENUE - ERP(66),,NIL,BAYFRONT AVENUE TOWARDS RAFFLES AVENUE - ERP(66),BAYFRONT AVENUE TOWARDS RAFFLES AVENUE - ERP(66),NIL,31047.8886534227,29755.6212727316,1.28537362965764,103.860705073072,103.860705073072,Bayfront
12,BAYFRONT BRIDGE,,NIL,BAYFRONT BRIDGE,BAYFRONT BRIDGE,NIL,31083.6925605573,29986.2282280643,1.28745915428288,103.8610268079,103.8610268079,Bayfront
13,BAYFRONT BRIDGE,,NIL,BAYFRONT BRIDGE,BAYFRONT BRIDGE,NIL,31044.9816557299,29991.7467473913,1.28750906560659,103.860678975275,103.860678975275,Bayfront
14,BAYFRONT MRT STATION (DT16 / CE1),11,BAYFRONT AVENUE,BAYFRONT MRT STATION (DT16 / CE1),11 BAYFRONT AVENUE BAYFRONT MRT STATION (DT16 / CE1) SINGAPORE 018957,018957,30867.0092712184,29368.6250332333,1.28187378879209,103.859079764874,103.859079764874,Bayfront
15,BAYFRONT MRT STATION EXIT,,NIL,BAYFRONT MRT STATION EXIT,BAYFRONT MRT STATION EXIT,NIL,31099.6697579063,29376.0639653243,1.2819410418667,103.861170309768,103.861170309768,Bayfront
16,BAYFRONT MRT STATION EXIT A,,NIL,BAYFRONT MRT STATION EXIT A,BAYFRONT MRT STATION EXIT A,NIL,30847.1161534768,29302.4357026033,1.28127519755786,103.858901011605,103.858901011605,Bayfront
17,BAYFRONT MRT STATION EXIT B,,NIL,BAYFRONT MRT STATION EXIT B,BAYFRONT MRT STATION EXIT B,NIL,30942.6216608072,29460.5616728719,1.28270522446426,103.859759179874,103.859759179874,Bayfront
18,BAYFRONT MRT STATION EXIT C,,NIL,BAYFRONT MRT STATION EXIT C,BAYFRONT MRT STATION EXIT C,NIL,30924.5580308046,29474.9012814984,1.28283490852292,103.859596872464,103.859596872464,Bayfront
19,BAYFRONT MRT STATION EXIT D,,NIL,BAYFRONT MRT STATION EXIT D,BAYFRONT MRT STATION EXIT D,NIL,30913.0920645529,29474.8398374915,1.28283435390697,103.859493846293,103.859493846293,Bayfront
20,RANGGUNG LRT STATION (SE5),30,SENGKANG EAST AVENUE,RANGGUNG LRT STATION (SE5),30 SENGKANG EAST AVENUE RANGGUNG LRT STATION (SE5) SINGAPORE 545046,545046,35108.5940098073,40687.1253354792,1.38423355918277,103.897194667804,103.897194667804,Ranggung
21,STEVENS GARDEN,7,STEVENS DRIVE,STEVENS GARDEN,7 STEVENS DRIVE STEVENS GARDEN SINGAPORE 257903,257903,27282.8527967697,33260.4692735653,1.31707038024487,103.826874645143,103.826874645143,Stevens
22,STEVENS GARDEN,5A,STEVENS DRIVE,STEVENS GARDEN,5A STEVENS DRIVE STEVENS GARDEN SINGAPORE 257901,257901,27280.1980524538,33279.6918646637,1.31724422250564,103.82685079046,103.82685079046,Stevens
23,STEVENS GARDEN,,NIL,STEVENS GARDEN,STEVENS GARDEN,NIL,27279.5976264607,33276.9460742529,1.31721939053305,103.82684539539,103.82684539539,Stevens
24,STEVENS GARDEN,5,STEVENS DRIVE,STEVENS GARDEN,5 STEVENS DRIVE STEVENS GARDEN SINGAPORE 257900,257900,27278.9879687326,33288.4554447941,1.31732347719983,103.826839917034,103.826839917034,Stevens
25,STEVENS LOFT,6,STEVENS DRIVE,STEVENS LOFT,6 STEVENS DRIVE STEVENS LOFT SINGAPORE 257902,257902,27240.1114980346,33355.8106376193,1.31793261282558,103.826490590389,103.826490590389,Stevens
26,STEVENS LOFT,,NIL,STEVENS LOFT,STEVENS LOFT,NIL,27246.1070710532,33340.9849857111,1.31779853501642,103.826544464056,103.826544464056,Stevens
27,STEVENS MRT STATION (DT10),92,STEVENS ROAD,STEVENS MRT STATION (DT10),92 STEVENS ROAD STEVENS MRT STATION (DT10) SINGAPORE 257877,257877,27188.2299643802,33591.6608552355,1.32006555750626,103.826024401924,103.826024401924,Stevens
28,STEVENS MRT STATION (TE11),82,STEVENS ROAD,STEVENS MRT STATION (TE11),82 STEVENS ROAD STEVENS MRT STATION (TE11) SINGAPORE 257879,257879,27137.3215161348,33510.8105305303,1.31933437435349,103.825566965234,103.825566965234,Stevens
29,STEVENS MRT STATION EXIT 1,,NIL,STEVENS MRT STATION EXIT 1,STEVENS MRT STATION EXIT 1,NIL,27156.3837171877,33582.5353608243,1.31998302889772,103.825738247034,103.825738247034,Stevens
30,STEVENS MRT STATION EXIT 2,,NIL,STEVENS MRT STATION EXIT 2,STEVENS MRT STATION EXIT 2,NIL,27187.8119029896,33451.4522903413,1.31879756079149,103.826020649127,103.826020649127,Stevens
31,MARYMOUNT CENTRE,9,LORONG 8 TOA PAYOH,MARYMOUNT CENTRE,9 LORONG 8 TOA PAYOH MARYMOUNT CENTRE SINGAPORE 319253,319253,30641.6949149827,35843.2114136107,1.3404276785035,103.857055779648,103.857055779648,Marymount
32,MARYMOUNT COMMUNITY CLUB,191,SIN MING AVENUE,MARYMOUNT COMMUNITY CLUB,191 SIN MING AVENUE MARYMOUNT COMMUNITY CLUB SINGAPORE 575738,575738,28904.1137284217,38173.9157459363,1.36150584133082,103.841442648888,103.841442648888,Marymount
33,MARYMOUNT CONVENT SCHOOL,20,MARYMOUNT ROAD,MARYMOUNT CONVENT SCHOOL,20 MARYMOUNT ROAD MARYMOUNT CONVENT SCHOOL SINGAPORE 297754,297754,28745.9144793656,35836.4646800403,1.34036676987375,103.840021064426,103.840021064426,Marymount
34,MARYMOUNT FLYOVER,,NIL,MARYMOUNT FLYOVER,MARYMOUNT FLYOVER,NIL,28728.2620399212,36170.4002360422,1.3433867648955,103.839862454762,103.839862454762,Marymount
35,MARYMOUNT KINDERGARTEN,9,LORONG 8 TOA PAYOH,MARYMOUNT KINDERGARTEN,9 LORONG 8 TOA PAYOH MARYMOUNT KINDERGARTEN SINGAPORE 319253,319253,30633.6241084645,35866.5202127788,1.34063847569791,103.856983260676,103.856983260676,Marymount
36,MARYMOUNT MRT STATION (CC16),60,MARYMOUNT ROAD,MARYMOUNT MRT STATION (CC16),60 MARYMOUNT ROAD MARYMOUNT MRT STATION (CC16) SINGAPORE 573993,573993,28679.3687734958,36758.7136478554,1.348707263451,103.839423132332,103.839423132332,Marymount
37,MARYMOUNT MRT STATION EXIT A,,NIL,MARYMOUNT MRT STATION EXIT A,MARYMOUNT MRT STATION EXIT A,NIL,28642.076862013,36788.8611952644,1.3489799079699,103.839088041822,103.839088041822,Marymount
38,MARYMOUNT MRT STATION EXIT B,,NIL,MARYMOUNT MRT STATION EXIT B,MARYMOUNT MRT STATION EXIT B,NIL,28748.8859175947,36666.4743283782,1.34787308218984,103.840047785068,103.840047785068,Marymount
39,MARYMOUNT TERRACE PLAYGROUND,,NIL,MARYMOUNT TERRACE PLAYGROUND,MARYMOUNT TERRACE PLAYGROUND,NIL,28779.1006296612,36822.9885890502,1.34928854073874,103.840319287098,103.840319287098,Marymount
40,MARYMOUNT VIEW,11,PEMIMPIN DRIVE,MARYMOUNT VIEW,11 PEMIMPIN DRIVE MARYMOUNT VIEW SINGAPORE 576148,576148,28845.5949102258,37213.6484047621,1.3528215273169,103.840916790896,103.840916790896,Marymount
41,KATONG PARK MRT STATION (TE24),45,MEYER ROAD,KATONG PARK MRT STATION (TE24),45 MEYER ROAD KATONG PARK MRT STATION (TE24) SINGAPORE 437870,437870,33882.890949796,31133.1909445133,1.29783147778951,103.886178949925,103.886178949925,Katong Park
42,H.S. OF KATONG PARK (HISTORIC SITE),,NIL,H.S. OF KATONG PARK (HISTORIC SITE),H.S. OF KATONG PARK (HISTORIC SITE),NIL,33888.8015000485,31025.3677601386,1.29685636214141,103.886232038559,103.886232038559,Katong Park
43,KATONG PARK,,NIL,KATONG PARK,KATONG PARK,NIL,33902.6018240089,31061.6722997241,1.29718468487452,103.886356047309,103.886356047309,Katong Park
44,BRADDELL ESTATE,,NIL,BRADDELL ESTATE,BRADDELL ESTATE,NIL,31491.1758664437,35987.4177132584,1.34173174251354,103.864688887374,103.864688887374,Braddell
45,BRADDELL FLYOVER,,NIL,BRADDELL FLYOVER,BRADDELL FLYOVER,NIL,30898.0929770973,36211.0050086118,1.3437538492982,103.859359703805,103.859359703805,Braddell
46,BRADDELL HEADQUARTER BUS DEPOT,205,BRADDELL ROAD,BRADDELL HEADQUARTER BUS DEPOT,205 BRADDELL ROAD BRADDELL HEADQUARTER BUS DEPOT SINGAPORE 579701,579701,31017.0169747695,35910.9086951893,1.34103987340844,103.860428278171,103.860428278171,Braddell
47,BRADDELL HEIGHTS COMMUNITY CLUB (PENDING U/C),50,SERANGOON AVENUE 2,BRADDELL HEIGHTS COMMUNITY CLUB (PENDING U/C),50 SERANGOON AVENUE 2 BRADDELL HEIGHTS COMMUNITY CLUB (PENDING U/C) SINGAPORE 556129,556129,32131.5550531261,37081.7207061928,1.3516281467669,103.870443227253,103.870443227253,Braddell
48,BRADDELL HEIGHTS COMMUNITY HUB,264,SERANGOON CENTRAL,BRADDELL HEIGHTS COMMUNITY HUB,264 SERANGOON CENTRAL BRADDELL HEIGHTS COMMUNITY HUB SINGAPORE 550264,550264,32316.2901527034,37153.1479719393,1.35227408330171,103.872103199544,103.872103199544,Braddell
49,BRADDELL HEIGHTS ESTATE,6,COTSWOLD CLOSE,BRADDELL HEIGHTS ESTATE,6 COTSWOLD CLOSE BRADDELL HEIGHTS ESTATE SINGAPORE 359605,359605,31204.6115210373,36443.2246723846,1.34585393008335,103.862113983388,103.862113983388,Braddell
50,BRADDELL HEIGHTS ESTATE,5A,SUNDRIDGE PARK ROAD,BRADDELL HEIGHTS ESTATE,5A SUNDRIDGE PARK ROAD BRADDELL HEIGHTS ESTATE SINGAPORE 358152,358152,31439.5342065599,36565.3174858093,1.34695806795345,103.864224921827,103.864224921827,Braddell
51,BRADDELL HEIGHTS ESTATE,6,MATLOCK RISE,BRADDELL HEIGHTS ESTATE,6 MATLOCK RISE BRADDELL HEIGHTS ESTATE SINGAPORE 358542,358542,31407.9847369483,36550.9388920199,1.34682803667965,103.863941428728,103.863941428728,Braddell
52,BRADDELL HEIGHTS ESTATE,6,MUSWELL HILL,BRADDELL HEIGHTS ESTATE,6 MUSWELL HILL BRADDELL HEIGHTS ESTATE SINGAPORE 358421,358421,31188.243715358,36322.8703611419,1.34476549033154,103.861966895916,103.861966895916,Braddell
53,BRADDELL HEIGHTS ESTATE,6B,CLIFTON VALE,BRADDELL HEIGHTS ESTATE,6B CLIFTON VALE BRADDELL HEIGHTS ESTATE SINGAPORE 359675,359675,31416.4920985959,36375.0218246747,1.34523710449546,103.864017852739,103.864017852739,Braddell
54,SEGAR GARDENS,472,SEGAR ROAD,SEGAR GARDENS,472 SEGAR ROAD SEGAR GARDENS SINGAPORE 670472,670472,21239.7443636907,41093.7451865934,1.38791096329786,103.772572478235,103.772572478235,Segar
55,SEGAR GARDENS,479,SEGAR ROAD,SEGAR GARDENS,479 SEGAR ROAD SEGAR GARDENS SINGAPORE 670479,670479,21255.1584857386,41286.258098606,1.38965198363957,103.772710941574,103.772710941574,Segar
56,SEGAR GARDENS,478A,SEGAR ROAD,SEGAR GARDENS,478A SEGAR ROAD SEGAR GARDENS SINGAPORE 671478,671478,21285.2794275908,41313.2498454973,1.3898960941557,103.772981595323,103.772981595323,Segar
57,SEGAR GARDENS,483,SEGAR ROAD,SEGAR GARDENS,483 SEGAR ROAD SEGAR GARDENS SINGAPORE 670483,670483,21190.0625254847,41191.7477117758,1.38879725090534,103.772126026054,103.772126026054,Segar
58,SEGAR GARDENS,466,SEGAR ROAD,SEGAR GARDENS,466 SEGAR ROAD SEGAR GARDENS SINGAPORE 670466,670466,21320.6063415706,40986.705670584,1.38694295549199,103.773299109481,103.773299109481,Segar
59,SEGAR GARDENS,482,SEGAR ROAD,SEGAR GARDENS,482 SEGAR ROAD SEGAR GARDENS SINGAPORE 670482,670482,21208.5223028585,41231.9684744347,1.38916099716883,103.772291892028,103.772291892028,Segar
60,SEGAR GARDENS,467,SEGAR ROAD,SEGAR GARDENS,467 SEGAR ROAD SEGAR GARDENS SINGAPORE 670467,670467,21375.0644070702,40991.0696479399,1.38698243415701,103.773788455756,103.773788455756,Segar
61,SEGAR GARDENS,473,SEGAR ROAD,SEGAR GARDENS,473 SEGAR ROAD SEGAR GARDENS SINGAPORE 670473,670473,21192.1194468541,41129.832523128,1.38823731294211,103.772144523474,103.772144523474,Segar
62,SEGAR GARDENS,475,SEGAR ROAD,SEGAR GARDENS,475 SEGAR ROAD SEGAR GARDENS SINGAPORE 670475,670475,21246.9545303592,41208.2207289673,1.3889462401475,103.772637240705,103.772637240705,Segar
63,SEGAR GARDENS,468,SEGAR ROAD,SEGAR GARDENS,468 SEGAR ROAD SEGAR GARDENS SINGAPORE 670468,670468,21339.3109263964,41046.3783951215,1.38748261821031,103.77346717088,103.77346717088,Segar
64,KENT RIDGE CRESCENT,,KENT RIDGE CRESCENT,NIL,KENT RIDGE CRESCENT,NIL,21305.6953944834,31144.577003289,1.29793428466508,103.773167298977,103.773167298977,Kent Ridge
65,KENT RIDGE DRIVE,,KENT RIDGE DRIVE,NIL,KENT RIDGE DRIVE,NIL,21194.3846298932,30643.5898089109,1.29340432948153,103.772164251813,103.772164251813,Kent Ridge
66,LOWER KENT RIDGE ROAD,,LOWER KENT RIDGE ROAD,NIL,LOWER KENT RIDGE ROAD,NIL,22014.7622009041,31057.7347074542,1.29714905829377,103.77953859165,103.77953859165,Kent Ridge
67,KENT RIDGE ROAD,,KENT RIDGE ROAD,NIL,KENT RIDGE ROAD,NIL,21902.5476250247,30800.7351276466,1.29482481420691,103.778530131892,103.778530131892,Kent Ridge
68,DBS NUH KENT RIDGE WING,5,LOWER KENT RIDGE ROAD,DBS NUH KENT RIDGE WING,5 LOWER KENT RIDGE ROAD DBS NUH KENT RIDGE WING SINGAPORE 119074,119074,22476.1118029403,30763.5455845371,1.2944886015921,103.78368407095,103.78368407095,Kent Ridge
69,NATIONAL UNIVERSITY HOSPITAL (KENT RIDGE WING 2),5,LOWER KENT RIDGE ROAD,NATIONAL UNIVERSITY HOSPITAL (KENT RIDGE WING 2),5 LOWER KENT RIDGE ROAD NATIONAL UNIVERSITY HOSPITAL (KENT RIDGE WING 2) SINGAPORE 119074,119074,22461.1443455284,30617.7690424304,1.29317024763764,103.783549607648,103.783549607648,Kent Ridge
70,NATIONAL UNIVERSITY OF SINGAPORE (KENT RIDGE GUILD HOUSE),9,KENT RIDGE DRIVE,NATIONAL UNIVERSITY OF SINGAPORE (KENT RIDGE GUILD HOUSE),9 KENT RIDGE DRIVE NATIONAL UNIVERSITY OF SINGAPORE (KENT RIDGE GUILD HOUSE) SINGAPORE 119241,119241,21245.0554867927,30686.4880803339,1.29379147878233,103.772622521493,103.772622521493,Kent Ridge
71,NATIONAL UNIVERSITY OF SINGAPORE (KENT RIDGE HALL),10,HENG MUI KENG TERRACE,NATIONAL UNIVERSITY OF SINGAPORE (KENT RIDGE HALL),10 HENG MUI KENG TERRACE NATIONAL UNIVERSITY OF SINGAPORE (KENT RIDGE HALL) SINGAPORE 119617,119617,21451.3974168152,30468.5236683171,1.29182033025598,103.774476636473,103.774476636473,Kent Ridge
72,KENT RIDGE HILL RESIDENCES,56F,SOUTH BUONA VISTA ROAD,KENT RIDGE HILL RESIDENCES,56F SOUTH BUONA VISTA ROAD KENT RIDGE HILL RESIDENCES SINGAPORE 117293,117293,23260.0976805137,29252.5672017429,1.28082397634044,103.790728746282,103.790728746282,Kent Ridge
73,KENT RIDGE HILL RESIDENCES,56G,SOUTH BUONA VISTA ROAD,KENT RIDGE HILL RESIDENCES,56G SOUTH BUONA VISTA ROAD KENT RIDGE HILL RESIDENCES SINGAPORE 117294,117294,23268.8621989507,29271.224840926,1.2809927107571,103.790807496033,103.790807496033,Kent Ridge
74,SHENTON WAY,,SHENTON WAY,NIL,SHENTON WAY,NIL,29651.5806827865,28732.7227758217,1.27612402388542,103.848159371383,103.848159371383,Shenton Way
75,SHENTON WAY MRT STATION (TE19),2,PARK STREET,SHENTON WAY MRT STATION (TE19),2 PARK STREET SHENTON WAY MRT STATION (TE19) SINGAPORE 018928,018928,29897.4191489154,28908.9617211055,1.2777168283425,103.850367596067,103.850367596067,Shenton Way
76,UOB SHENTON WAY AUTOLOBBY,2,SHENTON WAY,UOB SHENTON WAY AUTOLOBBY,2 SHENTON WAY UOB SHENTON WAY AUTOLOBBY SINGAPORE 068804,068804,29858.0240060482,29121.3082137369,1.27963721786012,103.850013628463,103.850013628463,Shenton Way
77,SHENTON WAY POST OFFICE,6A,SHENTON WAY,SHENTON WAY POST OFFICE,6A SHENTON WAY SHENTON WAY POST OFFICE SINGAPORE 068815,068815,29736.2366268476,28921.3471681681,1.27782884723464,103.848919311874,103.848919311874,Shenton Way
78,SHENTON WAY BUS TERMINAL,31,SHENTON WAY,SHENTON WAY BUS TERMINAL,31 SHENTON WAY SHENTON WAY BUS TERMINAL SINGAPORE 079121,079121,29588.8453786131,28551.7515687551,1.27448636193999,103.847594928251,103.847594928251,Shenton Way
79,SHENTON WAY MRT STATION EXIT 1,,NIL,SHENTON WAY MRT STATION EXIT 1,SHENTON WAY MRT STATION EXIT 1,NIL,30059.3128777966,28879.8926824909,1.27745392803543,103.851822269502,103.851822269502,Shenton Way
80,SHENTON WAY MRT STATION EXIT 2,,NIL,SHENTON WAY MRT STATION EXIT 2,SHENTON WAY MRT STATION EXIT 2,NIL,29954.8949323921,28825.3740204889,1.27696088700122,103.850884032212,103.850884032212,Shenton Way
81,SHENTON WAY MRT STATION EXIT 3,,NIL,SHENTON WAY MRT STATION EXIT 3,SHENTON WAY MRT STATION EXIT 3,NIL,29878.9850387918,28897.1806651428,1.27761028570468,103.850201958042,103.850201958042,Shenton Way
82,SHENTON WAY MRT STATION EXIT 4,,NIL,SHENTON WAY MRT STATION EXIT 4,SHENTON WAY MRT STATION EXIT 4,NIL,29971.6061888821,28894.7669145148,1.27758845095655,103.851034193312,103.851034193312,Shenton Way
83,SHENTON WAY MRT STATION EXIT 5,,NIL,SHENTON WAY MRT STATION EXIT 5,SHENTON WAY MRT STATION EXIT 5,NIL,30045.1342343083,28851.2019331381,1.27719445988297,103.851694867293,103.851694867293,Shenton Way
84,FARMWAY LRT STATION (SW2),35,ANCHORVALE STREET,FARMWAY LRT STATION (SW2),35 ANCHORVALE STREET FARMWAY LRT STATION (SW2) SINGAPORE 545048,545048,34230.5208312804,42117.5715403445,1.39717019591821,103.889304824196,103.889304824196,Farmway
85,LEARNING SEEDS CHILD DEVELOPMENT CENTRE @ GEK POH PTE. LTD.,1,JURONG WEST STREET 74,LEARNING SEEDS CHILD DEVELOPMENT CENTRE @ GEK POH PTE. LTD.,1 JURONG WEST STREET 74 LEARNING SEEDS CHILD DEVELOPMENT CENTRE @ GEK POH PTE. LTD. SINGAPORE 649149,649149,13021.3609030796,36757.198311517,1.34868982129207,103.698726262283,103.698726262283,Gek Poh
86,GEK POH VILLE COMMUNITY CLUB (PENDING U/C),1,JURONG WEST STREET 74,GEK POH VILLE COMMUNITY CLUB (PENDING U/C),1 JURONG WEST STREET 74 GEK POH VILLE COMMUNITY CLUB (PENDING U/C) SINGAPORE 649149,649149,13021.3608122757,36757.1985839289,1.34868982375562,103.698726261467,103.698726261467,Gek Poh
87,GEK POH VILLE,743,JURONG WEST STREET 73,GEK POH VILLE,743 JURONG WEST STREET 73 GEK POH VILLE SINGAPORE 640743,640743,13073.5559827769,36602.90260325,1.34729445566249,103.699195342781,103.699195342781,Gek Poh
88,GEK POH VILLE,744,JURONG WEST STREET 73,GEK POH VILLE,744 JURONG WEST STREET 73 GEK POH VILLE SINGAPORE 640744,640744,13062.9258366274,36532.625702491,1.34665889281139,103.699099859364,103.699099859364,Gek Poh
89,GEK POH VILLE,745,JURONG WEST STREET 73,GEK POH VILLE,745 JURONG WEST STREET 73 GEK POH VILLE SINGAPORE 640745,640745,12934.9011340225,36571.7800938152,1.3470129261942,103.697949461953,103.697949461953,Gek Poh
90,GEK POH VILLE,746,JURONG WEST STREET 73,GEK POH VILLE,746 JURONG WEST STREET 73 GEK POH VILLE SINGAPORE 640746,640746,12933.4439122146,36618.8129991591,1.34743827314555,103.697936344468,103.697936344468,Gek Poh
91,GEK POH VILLE,747,JURONG WEST STREET 73,GEK POH VILLE,747 JURONG WEST STREET 73 GEK POH VILLE SINGAPORE 640747,640747,12864.9637795053,36638.4421195462,1.34761575693698,103.697320999848,103.697320999848,Gek Poh
92,GEK POH VILLE,748,JURONG WEST STREET 73,GEK POH VILLE,748 JURONG WEST STREET 73 GEK POH VILLE SINGAPORE 640748,640748,12937.0481329113,36653.6548081636,1.34775337100719,103.697968713143,103.697968713143,Gek Poh
93,GEK POH VILLE,749,JURONG WEST STREET 73,GEK POH VILLE,749 JURONG WEST STREET 73 GEK POH VILLE SINGAPORE 640749,640749,12948.5669470634,36688.237371888,1.34806612832922,103.698072199306,103.698072199306,Gek Poh
94,GEK POH VILLE,750,JURONG WEST STREET 73,GEK POH VILLE,750 JURONG WEST STREET 73 GEK POH VILLE SINGAPORE 640750,640750,13073.1753931502,36673.9649581853,1.34793711637819,103.699191887798,103.699191887798,Gek Poh
95,SEMBAWANG AIR BASE,301,SEMBAWANG ROAD,SEMBAWANG AIR BASE,301 SEMBAWANG ROAD SEMBAWANG AIR BASE SINGAPORE 758533,758533,26639.7206764314,44599.5657582786,1.41961709618173,103.821095254872,103.821095254872,Sembawang
96,SEMBAWANG AIR BASE,309,SEMBAWANG ROAD,SEMBAWANG AIR BASE,309 SEMBAWANG ROAD SEMBAWANG AIR BASE SINGAPORE 758541,758541,26639.7207066994,44599.5657885466,1.41961709645547,103.821095255144,103.821095255144,Sembawang
97,SEMBAWANG AIR BASE,313,SEMBAWANG ROAD,SEMBAWANG AIR BASE,313 SEMBAWANG ROAD SEMBAWANG AIR BASE SINGAPORE 757754,757754,26639.7207066994,44599.5657885466,1.41961709645547,103.821095255144,103.821095255144,Sembawang
98,SEMBAWANG AIR BASE,305,SEMBAWANG ROAD,SEMBAWANG AIR BASE,305 SEMBAWANG ROAD SEMBAWANG AIR BASE SINGAPORE 758537,758537,26639.7207066994,44599.5657885466,1.41961709645547,103.821095255144,103.821095255144,Sembawang
99,SEMBAWANG AIR BASE,311,SEMBAWANG ROAD,SEMBAWANG AIR BASE,311 SEMBAWANG ROAD SEMBAWANG AIR BASE SINGAPORE 757752,757752,26639.7207066994,44599.5657885466,1.41961709645547,103.821095255144,103.821095255144,Sembawang
100,SEMBAWANG AIR BASE,319,SEMBAWANG ROAD,SEMBAWANG AIR BASE,319 SEMBAWANG ROAD SEMBAWANG AIR BASE SINGAPORE 757757,757757,26639.7207066994,44599.5657885466,1.41961709645547,103.821095255144,103.821095255144,Sembawang
101,SEMBAWANG AIR BASE,303,SEMBAWANG ROAD,SEMBAWANG AIR BASE,303 SEMBAWANG ROAD SEMBAWANG AIR BASE SINGAPORE 758535,758535,26639.7207066994,44599.5657885466,1.41961709645547,103.821095255144,103.821095255144,Sembawang
102,SEMBAWANG AIR BASE,317,SEMBAWANG ROAD,SEMBAWANG AIR BASE,317 SEMBAWANG ROAD SEMBAWANG AIR BASE SINGAPORE 757756,757756,26639.7207066994,44599.5657885466,1.41961709645547,103.821095255144,103.821095255144,Sembawang
103,SEMBAWANG AIR BASE,315,SEMBAWANG ROAD,SEMBAWANG AIR BASE,315 SEMBAWANG ROAD SEMBAWANG AIR BASE SINGAPORE 757755,757755,26639.7207066994,44599.5657885466,1.41961709645547,103.821095255144,103.821095255144,Sembawang
104,SEMBAWANG ANIMAL QUARANTINE STATION,10,LORONG CHENCHARU,SEMBAWANG ANIMAL QUARANTINE STATION,10 LORONG CHENCHARU SEMBAWANG ANIMAL QUARANTINE STATION SINGAPORE 769197,769197,27056.4355357438,44267.765093971,1.41661642762872,103.824839820661,103.824839820661,Sembawang
105,DOVER CLEMENTI SPORTS CLUB,108,JURONG EAST STREET 13,DOVER CLEMENTI SPORTS CLUB,108 JURONG EAST STREET 13 DOVER CLEMENTI SPORTS CLUB SINGAPORE 600108,600108,17292.1274587894,35606.2644961402,1.33828303068105,103.737102099236,103.737102099236,Dover
106,DOVER COMMUNITY CENTRE,1,DOVER ROAD,DOVER COMMUNITY CENTRE,1 DOVER ROAD DOVER COMMUNITY CENTRE SINGAPORE 130001,130001,22430.2319261692,31652.7173970658,1.3025299473495,103.783271662459,103.783271662459,Dover
107,DOVER COURT,5,DOVER CRESCENT,DOVER COURT,5 DOVER CRESCENT DOVER COURT SINGAPORE 130005,130005,22359.625497872,31821.9183317721,1.30406012764311,103.782637200936,103.782637200936,Dover
108,DOVER COURT,4,DOVER ROAD,DOVER COURT,4 DOVER ROAD DOVER COURT SINGAPORE 130004,130004,22430.4991016621,31749.7728673071,1.30340768255151,103.783274045827,103.783274045827,Dover
109,DOVER COURT,,NIL,DOVER COURT,DOVER COURT,NIL,22398.140538577,31736.9901226908,1.30329207412363,103.78298329159,103.78298329159,Dover
110,DOVER COURT,2A,DOVER ROAD,DOVER COURT,2A DOVER ROAD DOVER COURT SINGAPORE 131002,131002,22476.269953155,31692.1559139546,1.30288662350767,103.783685328128,103.783685328128,Dover
111,DOVER COURT,3,DOVER ROAD,DOVER COURT,3 DOVER ROAD DOVER COURT SINGAPORE 130003,130003,22338.09984616,31786.0696280207,1.30373592079542,103.782443789544,103.782443789544,Dover
112,DOVER COURT,1,DOVER ROAD,DOVER COURT,1 DOVER ROAD DOVER COURT SINGAPORE 130001,130001,22430.399338387,31652.2529348563,1.30252574694853,103.783273166817,103.783273166817,Dover
113,DOVER COURT,2,DOVER ROAD,DOVER COURT,2 DOVER ROAD DOVER COURT SINGAPORE 130002,130002,22389.4300484909,31716.1319708247,1.30310343884227,103.782905027596,103.782905027596,Dover
114,DOVER COURT,3A,DOVER ROAD,DOVER COURT,3A DOVER ROAD DOVER COURT SINGAPORE 131003,131003,22389.4636156848,31779.3152669184,1.30367484610123,103.782905317846,103.782905317846,Dover
115,MARINA SOUTH DRIVE,,MARINA SOUTH DRIVE,NIL,MARINA SOUTH DRIVE,NIL,32049.2718266605,28846.9205258066,1.27715739248128,103.869705280816,103.869705280816,Marina South
116,MARINA SOUTH WHARVES,71,MARINA COASTAL DRIVE,MARINA SOUTH WHARVES,71 MARINA COASTAL DRIVE MARINA SOUTH WHARVES SINGAPORE 018946,018946,30674.2931702305,28060.1684885044,1.27004058407892,103.857348026655,103.857348026655,Marina South
117,MARINA SOUTH PIER MRT STATION (NS28),33,MARINA COASTAL DRIVE,MARINA SOUTH PIER MRT STATION (NS28),33 MARINA COASTAL DRIVE MARINA SOUTH PIER MRT STATION (NS28) SINGAPORE 018948,018948,31241.8260070179,28169.2510934137,1.27102703612006,103.862447515736,103.862447515736,Marina South
118,MARINA SOUTH PIER,31,MARINA COASTAL DRIVE,MARINA SOUTH PIER,31 MARINA COASTAL DRIVE MARINA SOUTH PIER SINGAPORE 018988,018988,31319.9049345991,28087.8403267208,1.27029077767613,103.863149073604,103.863149073604,Marina South
119,MARINA SOUTH PIER (VISIT WWW.SLA.GOV.SG/ISLANDS FOR MORE INFORMATION ON FERRY SERVICES),31,MARINA COASTAL DRIVE,MARINA SOUTH PIER (VISIT WWW.SLA.GOV.SG/ISLANDS FOR MORE INFORMATION ON FERRY SERVICES),31 MARINA COASTAL DRIVE MARINA SOUTH PIER (VISIT WWW.SLA.GOV.SG/ISLANDS FOR MORE INFORMATION ON FERRY SERVICES) SINGAPORE 018988,018988,31331.7305147648,28150.9180480894,1.27086122920424,103.863255337086,103.863255337086,Marina South
120,MARINA SOUTH PIER CHECKPOINT,31,MARINA COASTAL DRIVE,MARINA SOUTH PIER CHECKPOINT,31 MARINA COASTAL DRIVE MARINA SOUTH PIER CHECKPOINT SINGAPORE 018988,018988,31339.7697517769,28152.1325812042,1.2708722121721,103.863327572547,103.863327572547,Marina South
121,MARINA SOUTH MRT STATION (TE21),61,MARINA MALL,MARINA SOUTH MRT STATION (TE21),61 MARINA MALL MARINA SOUTH MRT STATION (TE21) SINGAPORE 019397,019397,31367.2262635585,28559.3299454469,1.27455475919137,103.863574321728,103.863574321728,Marina South
122,MARINA SOUTH PIER MRT STATION EXIT A,,NIL,MARINA SOUTH PIER MRT STATION EXIT A,MARINA SOUTH PIER MRT STATION EXIT A,NIL,31223.2474278081,28130.3504991326,1.27067523469027,103.862280576826,103.862280576826,Marina South
123,MARINA SOUTH PIER MRT STATION EXIT B,,NIL,MARINA SOUTH PIER MRT STATION EXIT B,MARINA SOUTH PIER MRT STATION EXIT B,NIL,31366.1227231398,28219.2506849132,1.27147920195277,103.863564370201,103.863564370201,Marina South
124,MARINA SOUTH,,NIL,MARINA SOUTH,MARINA SOUTH,NIL,31682.4055672875,29546.9230407141,1.28348616848849,103.866406435474,103.866406435474,Marina South
125,SAMUDERA LRT STATION (PW4),61,PUNGGOL WAY,SAMUDERA LRT STATION (PW4),61 PUNGGOL WAY SAMUDERA LRT STATION (PW4) SINGAPORE 828645,828645,35660.6597858425,44188.8484394047,1.41590172160383,103.902156317163,103.902156317163,Samudera
126,UOB CHINESE GARDEN MRT STATION,151,BOON LAY WAY,UOB CHINESE GARDEN MRT STATION,151 BOON LAY WAY UOB CHINESE GARDEN MRT STATION SINGAPORE 609959,609959,16809.6501079546,36044.3730992917,1.34224494823931,103.732766601621,103.732766601621,Chinese Garden
127,CHINESE GARDEN MRT STATION (EW25),151,BOON LAY WAY,CHINESE GARDEN MRT STATION (EW25),151 BOON LAY WAY CHINESE GARDEN MRT STATION (EW25) SINGAPORE 609959,609959,16790.7466322081,36056.3018932827,1.34235282081401,103.732596738363,103.732596738363,Chinese Garden
128,DBS CHINESE GARDEN MRT STATION,151,BOON LAY WAY,DBS CHINESE GARDEN MRT STATION,151 BOON LAY WAY DBS CHINESE GARDEN MRT STATION SINGAPORE 609959,609959,16809.6501079546,36044.3730992917,1.34224494823931,103.732766601621,103.732766601621,Chinese Garden
129,OCBC CHINESE GARDEN MRT STATION,151,BOON LAY WAY,OCBC CHINESE GARDEN MRT STATION,151 BOON LAY WAY OCBC CHINESE GARDEN MRT STATION SINGAPORE 609959,609959,16809.6501079546,36044.3730992917,1.34224494823931,103.732766601621,103.732766601621,Chinese Garden
130,CHINESE GARDEN MRT STATION EXIT A,,NIL,CHINESE GARDEN MRT STATION EXIT A,CHINESE GARDEN MRT STATION EXIT A,NIL,16749.3360653771,36066.0366216693,1.34244084264959,103.732224636444,103.732224636444,Chinese Garden
131,CHINESE GARDEN MRT STATION EXIT B,,NIL,CHINESE GARDEN MRT STATION EXIT B,CHINESE GARDEN MRT STATION EXIT B,NIL,16770.4981380692,36043.1947364174,1.34223427697715,103.732414798591,103.732414798591,Chinese Garden
132,GARDENS BY THE BAY (CHINESE GARDEN),,NIL,GARDENS BY THE BAY (CHINESE GARDEN),GARDENS BY THE BAY (CHINESE GARDEN),NIL,31361.2234564917,29501.2383924369,1.28307304852982,103.863520483863,103.863520483863,Chinese Garden
133,CHINESE GARDEN MRT STATION EXIT C,,NIL,CHINESE GARDEN MRT STATION EXIT C,CHINESE GARDEN MRT STATION EXIT C,NIL,16798.7646513628,36028.5093766134,1.34210147853728,103.73266879526,103.73266879526,Chinese Garden
134,JLG: CHINESE & JAPANESE GARDEN,,NIL,JLG: CHINESE & JAPANESE GARDEN,JLG: CHINESE & JAPANESE GARDEN,NIL,16397.156330849,35675.032749787,1.33890461457493,103.729060244019,103.729060244019,Chinese Garden
135,LITTLE INDIA CONSERVATION AREA,1,HINDOO ROAD,LITTLE INDIA CONSERVATION AREA,1 HINDOO ROAD LITTLE INDIA CONSERVATION AREA SINGAPORE 209105,209105,30271.9609606182,32349.2669090871,1.30882971256372,103.853733241818,103.853733241818,Little India
136,LITTLE INDIA CONSERVATION AREA,1,UPPER DICKSON ROAD,LITTLE INDIA CONSERVATION AREA,1 UPPER DICKSON ROAD LITTLE INDIA CONSERVATION AREA SINGAPORE 207460,207460,30110.4369248906,32107.2460484356,1.30664097279732,103.852281854263,103.852281854263,Little India
137,LITTLE INDIA ARCADE,1,HASTINGS ROAD,LITTLE INDIA ARCADE,1 HASTINGS ROAD LITTLE INDIA ARCADE SINGAPORE 209148,209148,30038.64296252,31979.4133659191,1.30548490393853,103.851636743175,103.851636743175,Little India
138,LITTLE INDIA CONSERVATION AREA,1,CUFF ROAD,LITTLE INDIA CONSERVATION AREA,1 CUFF ROAD LITTLE INDIA CONSERVATION AREA SINGAPORE 209712,209712,30149.5091386391,32165.6312032156,1.30716898483852,103.852632940622,103.852632940622,Little India
139,LITTLE INDIA ARCADE,2,CAMPBELL LANE,LITTLE INDIA ARCADE,2 CAMPBELL LANE LITTLE INDIA ARCADE SINGAPORE 209883,209883,30052.1112769665,32000.6158463694,1.30567665080111,103.851757763694,103.851757763694,Little India
140,LITTLE INDIA CONSERVATION AREA,2,CUFF ROAD,LITTLE INDIA CONSERVATION AREA,2 CUFF ROAD LITTLE INDIA CONSERVATION AREA SINGAPORE 209713,209713,30130.8522258876,32134.7142133918,1.30688938378673,103.852465297282,103.852465297282,Little India
141,LITTLE INDIA CONSERVATION AREA,2,DALHOUSIE LANE,LITTLE INDIA CONSERVATION AREA,2 DALHOUSIE LANE LITTLE INDIA CONSERVATION AREA SINGAPORE 209671,209671,30068.923749594,31926.4663992375,1.30500606824514,103.851908826738,103.851908826738,Little India
142,LITTLE INDIA CONSERVATION AREA,2,UPPER DICKSON ROAD,LITTLE INDIA CONSERVATION AREA,2 UPPER DICKSON ROAD LITTLE INDIA CONSERVATION AREA SINGAPORE 207461,207461,30095.3128306624,32081.9339022283,1.3064120597083,103.852145955417,103.852145955417,Little India
143,LITTLE INDIA CONSERVATION AREA,2,MAYO STREET,LITTLE INDIA CONSERVATION AREA,2 MAYO STREET LITTLE INDIA CONSERVATION AREA SINGAPORE 208302,208302,30303.0839543398,31824.0136026777,1.30407950478628,103.854012858044,103.854012858044,Little India
144,LITTLE INDIA ARCADE,2,HASTINGS ROAD,LITTLE INDIA ARCADE,2 HASTINGS ROAD LITTLE INDIA ARCADE SINGAPORE 209149,209149,30043.8525668057,31976.1985428333,1.30545582986949,103.851683553703,103.851683553703,Little India
145,SIXTH AVENUE,,SIXTH AVENUE,NIL,SIXTH AVENUE,NIL,23406.5155576643,34034.1470376572,1.32407042852638,103.792045951112,103.792045951112,Sixth Avenue
146,UOB SIXTH AVENUE,6,SIXTH AVENUE,UOB SIXTH AVENUE,6 SIXTH AVENUE UOB SIXTH AVENUE SINGAPORE 276472,276472,23746.6310017025,34812.701586375,1.33110793039066,103.795099673515,103.795099673515,Sixth Avenue
147,OCBC SIXTH AVENUE - 7 ELEVEN,6,SIXTH AVENUE,OCBC SIXTH AVENUE - 7 ELEVEN,6 SIXTH AVENUE OCBC SIXTH AVENUE - 7 ELEVEN SINGAPORE 276472,276472,23746.6310017025,34812.701586375,1.33110793039066,103.795099673515,103.795099673515,Sixth Avenue
148,THE SIXTH AVENUE RESIDENCES,160,SIXTH AVENUE,THE SIXTH AVENUE RESIDENCES,160 SIXTH AVENUE THE SIXTH AVENUE RESIDENCES SINGAPORE 276537,276537,23520.2657713396,34333.1571426261,1.32677106873653,103.793065725549,103.793065725549,Sixth Avenue
149,THE SIXTH AVENUE RESIDENCES,162,SIXTH AVENUE,THE SIXTH AVENUE RESIDENCES,162 SIXTH AVENUE THE SIXTH AVENUE RESIDENCES SINGAPORE 276539,276539,23504.1724962732,34306.5079687741,1.32653006072729,103.792921122636,103.792921122636,Sixth Avenue
150,THE SIXTH AVENUE RESIDENCES,164,SIXTH AVENUE,THE SIXTH AVENUE RESIDENCES,164 SIXTH AVENUE THE SIXTH AVENUE RESIDENCES SINGAPORE 276541,276541,23473.8668289166,34311.6070343833,1.32657617037009,103.792648809017,103.792648809017,Sixth Avenue
151,THE SIXTH AVENUE RESIDENCES,166,SIXTH AVENUE,THE SIXTH AVENUE RESIDENCES,166 SIXTH AVENUE THE SIXTH AVENUE RESIDENCES SINGAPORE 276542,276542,23446.4732442731,34312.1725311242,1.32658128043627,103.792402662707,103.792402662707,Sixth Avenue
152,THE SIXTH AVENUE RESIDENCES,168,SIXTH AVENUE,THE SIXTH AVENUE RESIDENCES,168 SIXTH AVENUE THE SIXTH AVENUE RESIDENCES SINGAPORE 276543,276543,23465.735758842,34342.9005579259,1.32685917663983,103.792575742308,103.792575742308,Sixth Avenue
153,THE SIXTH AVENUE RESIDENCES,170,SIXTH AVENUE,THE SIXTH AVENUE RESIDENCES,170 SIXTH AVENUE THE SIXTH AVENUE RESIDENCES SINGAPORE 276544,276544,23540.3174933167,34381.8890806995,1.3272117859724,103.793245894075,103.793245894075,Sixth Avenue
154,THE SIXTH AVENUE RESIDENCES,172,SIXTH AVENUE,THE SIXTH AVENUE RESIDENCES,172 SIXTH AVENUE THE SIXTH AVENUE RESIDENCES SINGAPORE 276545,276545,23483.6679349914,34395.0604359582,1.32733089466208,103.792736864971,103.792736864971,Sixth Avenue
155,OCBC MARINA BAY SANDS,1,BAYFRONT AVENUE,OCBC MARINA BAY SANDS,1 BAYFRONT AVENUE OCBC MARINA BAY SANDS SINGAPORE 018971,018971,31081.3711878145,29676.9372881558,1.28466203613219,103.861005919301,103.861005919301,Marina Bay
156,MARINA BAY SANDS SINGAPORE,1,BAYFRONT AVENUE,MARINA BAY SANDS SINGAPORE,1 BAYFRONT AVENUE MARINA BAY SANDS SINGAPORE SINGAPORE 018971,018971,31036.5796872023,29544.7057292983,1.28346618479588,103.860603437294,103.860603437294,Marina Bay
157,MARINA BAY SANDS SKYPARK,1,BAYFRONT AVENUE,MARINA BAY SANDS SKYPARK,1 BAYFRONT AVENUE MARINA BAY SANDS SKYPARK SINGAPORE 018971,018971,31057.9147716891,29539.9285334274,1.28342297945301,103.86079514091,103.86079514091,Marina Bay
158,TOWER 1 (MARINA BAY SANDS SINGAPORE),1,BAYFRONT AVENUE,TOWER 1 (MARINA BAY SANDS SINGAPORE),1 BAYFRONT AVENUE TOWER 1 (MARINA BAY SANDS SINGAPORE) SINGAPORE 018971,018971,30993.9321586806,29447.0878193844,1.28258336683978,103.860220223356,103.860220223356,Marina Bay
159,MARINA BAY SANDS,1,BAYFRONT AVENUE,MARINA BAY SANDS,1 BAYFRONT AVENUE MARINA BAY SANDS SINGAPORE 018971,018971,31059.4625855722,29543.3804153632,1.28345419690844,103.860809048956,103.860809048956,Marina Bay
160,CITIBANK MARINA BAY SANDS,1,BAYFRONT AVENUE,CITIBANK MARINA BAY SANDS,1 BAYFRONT AVENUE CITIBANK MARINA BAY SANDS SINGAPORE 018971,018971,31056.498653803,29568.0990064107,1.28367774343659,103.860782419253,103.860782419253,Marina Bay
161,TOWER 2 (MARINA BAY SANDS SINGAPORE),1,BAYFRONT AVENUE,TOWER 2 (MARINA BAY SANDS SINGAPORE),1 BAYFRONT AVENUE TOWER 2 (MARINA BAY SANDS SINGAPORE) SINGAPORE 018971,018971,31049.6607530648,29559.8860614393,1.28360346911488,103.860720977246,103.860720977246,Marina Bay
162,TOWER 3 (MARINA BAY SANDS SINGAPORE),1,BAYFRONT AVENUE,TOWER 3 (MARINA BAY SANDS SINGAPORE),1 BAYFRONT AVENUE TOWER 3 (MARINA BAY SANDS SINGAPORE) SINGAPORE 018971,018971,31081.3711575465,29676.9373184238,1.28466203640592,103.861005919029,103.861005919029,Marina Bay
163,OCBC MARINA BAY MRT STATION,21,PARK STREET,OCBC MARINA BAY MRT STATION,21 PARK STREET OCBC MARINA BAY MRT STATION SINGAPORE 018925,018925,30368.2056121109,28766.3819018304,1.27642735476716,103.854597776754,103.854597776754,Marina Bay
164,DBS MARINA BAY MRT STATION,21,PARK STREET,DBS MARINA BAY MRT STATION,21 PARK STREET DBS MARINA BAY MRT STATION SINGAPORE 018925,018925,30368.2056121109,28766.3819018304,1.27642735476716,103.854597776754,103.854597776754,Marina Bay
165,JURONG EAST AVENUE 1,,JURONG EAST AVENUE 1,NIL,JURONG EAST AVENUE 1,NIL,17051.4657072422,36231.6839286948,1.34394361727901,103.734931027328,103.734931027328,Jurong East
166,JURONG EAST CENTRAL 1,,JURONG EAST CENTRAL 1,NIL,JURONG EAST CENTRAL 1,NIL,17663.9154234063,35003.365337876,1.33283197093058,103.74044385053,103.74044385053,Jurong East
167,JURONG EAST STREET 11,,JURONG EAST STREET 11,NIL,JURONG EAST STREET 11,NIL,18242.3002917288,34692.1120005413,1.33001599592261,103.74564017171,103.74564017171,Jurong East
168,JURONG EAST STREET 12,,JURONG EAST STREET 12,NIL,JURONG EAST STREET 12,NIL,17763.0365219814,34863.616811818,1.33156686598739,103.741333665715,103.741333665715,Jurong East
169,JURONG EAST STREET 13,,JURONG EAST STREET 13,NIL,JURONG EAST STREET 13,NIL,17312.3303098672,35456.0145857397,1.33692415899343,103.737283686826,103.737283686826,Jurong East
170,JURONG EAST STREET 21,,JURONG EAST STREET 21,NIL,JURONG EAST STREET 21,NIL,17990.9876272112,35500.9823795115,1.33733111375087,103.743381794901,103.743381794901,Jurong East
171,JURONG EAST STREET 24,,JURONG EAST STREET 24,NIL,JURONG EAST STREET 24,NIL,17773.1803983105,36047.5954893734,1.34227443320094,103.741424487841,103.741424487841,Jurong East
172,JURONG EAST STREET 31,,JURONG EAST STREET 31,NIL,JURONG EAST STREET 31,NIL,16520.3552913579,36402.5700861578,1.34528588144261,103.730139458498,103.730139458498,Jurong East
173,JURONG EAST STREET 32,,JURONG EAST STREET 32,NIL,JURONG EAST STREET 32,NIL,16927.0841891803,36565.146363027,1.34694849545159,103.733825383102,103.733825383102,Jurong East
174,JURONG EAST CENTRAL,,JURONG EAST CENTRAL,NIL,JURONG EAST CENTRAL,NIL,17778.642684687,35628.6783171157,1.33848562911337,103.741473502989,103.741473502989,Jurong East
175,BEDOK NORTH STREET 1,,BEDOK NORTH STREET 1,NIL,BEDOK NORTH STREET 1,NIL,38859.8274589817,34386.7687002924,1.32725411989182,103.930899540152,103.930899540152,Bedok North
176,BEDOK NORTH AVENUE 1,,BEDOK NORTH AVENUE 1,NIL,BEDOK NORTH AVENUE 1,NIL,38414.45149139,34306.0223647276,1.32652421566023,103.926898058991,103.926898058991,Bedok North
177,BEDOK NORTH STREET 2,,BEDOK NORTH STREET 2,NIL,BEDOK NORTH STREET 2,NIL,39554.3404228772,34573.473701534,1.32894307188373,103.937140564506,103.937140564506,Bedok North
178,BEDOK NORTH AVENUE 2,,BEDOK NORTH AVENUE 2,NIL,BEDOK NORTH AVENUE 2,NIL,38821.5479616718,34751.5616877052,1.3305534143043,103.930556186265,103.930556186265,Bedok North
179,BEDOK NORTH AVENUE 3,,BEDOK NORTH AVENUE 3,NIL,BEDOK NORTH AVENUE 3,NIL,39242.4855564816,34830.7825889431,1.33126962091701,103.934338586071,103.934338586071,Bedok North
180,BEDOK NORTH STREET 3,,BEDOK NORTH STREET 3,NIL,BEDOK NORTH STREET 3,NIL,38538.9553713461,35067.6832841932,1.33341229145616,103.928016834812,103.928016834812,Bedok North
181,BEDOK NORTH STREET 4,,BEDOK NORTH STREET 4,NIL,BEDOK NORTH STREET 4,NIL,39843.4510663827,34944.5809422092,1.33229821935981,103.939738700601,103.939738700601,Bedok North
182,BEDOK NORTH AVENUE 4,,BEDOK NORTH AVENUE 4,NIL,BEDOK NORTH AVENUE 4,NIL,40264.7100462578,35245.9735776037,1.33502410235851,103.943523990253,103.943523990253,Bedok North
183,BEDOK NORTH STREET 5,,BEDOK NORTH STREET 5,NIL,BEDOK NORTH STREET 5,NIL,40649.350357042,35362.9425375998,1.33608197763276,103.946979414375,103.946979414375,Bedok North
184,BEDOK NORTH ROAD,,BEDOK NORTH ROAD,NIL,BEDOK NORTH ROAD,NIL,38799.8348323318,34757.1992675126,1.33060762647616,103.930375074275,103.930375074275,Bedok North
185,CHINATOWN COMPLEX,335,SMITH STREET,CHINATOWN COMPLEX,335 SMITH STREET CHINATOWN COMPLEX SINGAPORE 050335,050335,29104.0078514805,29412.9722603802,1.2822749605271,103.843238518071,103.843238518071,Chinatown
186,CHINATOWN COMPLEX MARKET,335,SMITH STREET,CHINATOWN COMPLEX MARKET,335 SMITH STREET CHINATOWN COMPLEX MARKET SINGAPORE 050335,050335,29097.2327265413,29408.5769859292,1.28223521144332,103.843177640795,103.843177640795,Chinatown
187,CHINATOWN FOOD STREET,,SMITH STREET,CHINATOWN FOOD STREET,SMITH STREET CHINATOWN FOOD STREET,NIL,29156.1252029957,29443.2206607126,1.28254851458005,103.843706813785,103.843706813785,Chinatown
188,CHINATOWN HERITAGE CENTRE,50,PAGODA STREET,CHINATOWN HERITAGE CENTRE,50 PAGODA STREET CHINATOWN HERITAGE CENTRE SINGAPORE 059209,059209,29226.2547289412,29559.6015726607,1.2836010200578,103.844336959332,103.844336959332,Chinatown
189,CHINATOWN HERITAGE CENTRE,50A,PAGODA STREET,CHINATOWN HERITAGE CENTRE,50A PAGODA STREET CHINATOWN HERITAGE CENTRE SINGAPORE 059209,059209,29226.2546986733,29559.6016029287,1.28360102033154,103.84433695906,103.84433695906,Chinatown
190,CHINATOWN HERITAGE CENTRE,48,PAGODA STREET,CHINATOWN HERITAGE CENTRE,48 PAGODA STREET CHINATOWN HERITAGE CENTRE SINGAPORE 059207,059207,29230.852344864,29557.1603689697,1.28357894248921,103.844378270621,103.844378270621,Chinatown
191,CHINATOWN HERITAGE CENTRE,46,PAGODA STREET,CHINATOWN HERITAGE CENTRE,46 PAGODA STREET CHINATOWN HERITAGE CENTRE SINGAPORE 059205,059205,29235.3554036058,29554.6911068596,1.28355661117313,103.844418732274,103.844418732274,Chinatown
192,CHINATOWN HERITAGE CENTRE,46A,PAGODA STREET,CHINATOWN HERITAGE CENTRE,46A PAGODA STREET CHINATOWN HERITAGE CENTRE SINGAPORE 059205,059205,29235.3554036058,29554.6911068596,1.28355661117313,103.844418732274,103.844418732274,Chinatown
193,CHINATOWN HERITAGE CENTRE,48B,PAGODA STREET,CHINATOWN HERITAGE CENTRE,48B PAGODA STREET CHINATOWN HERITAGE CENTRE SINGAPORE 059207,059207,29230.8523145961,29557.1603992376,1.28357894276293,103.844378270349,103.844378270349,Chinatown
194,CHINATOWN HERITAGE CENTRE,48A,PAGODA STREET,CHINATOWN HERITAGE CENTRE,48A PAGODA STREET CHINATOWN HERITAGE CENTRE SINGAPORE 059207,059207,29230.8523145961,29557.1603992376,1.28357894276293,103.844378270349,103.844378270349,Chinatown
195,WOODLANDS NORTH COAST ROAD,,WOODLANDS NORTH COAST ROAD,NIL,WOODLANDS NORTH COAST ROAD,NIL,22493.8287437817,47869.2016119621,1.44918815875571,103.78383902539,103.78383902539,Woodlands North
196,NORTH WOODLANDS WAY,,NORTH WOODLANDS WAY,NIL,NORTH WOODLANDS WAY,NIL,22826.9616682022,46795.2663022522,1.4394737731714,103.786833818067,103.786833818067,Woodlands North
197,WOODLANDS NORTH MRT STATION EXIT 1,,NIL,WOODLANDS NORTH MRT STATION EXIT 1,WOODLANDS NORTH MRT STATION EXIT 1,NIL,22637.9852522723,47713.971751811,1.44778217342648,103.7851355073,103.7851355073,Woodlands North
198,WOODLANDS NORTH MRT STATION EXIT 2,,NIL,WOODLANDS NORTH MRT STATION EXIT 2,WOODLANDS NORTH MRT STATION EXIT 2,NIL,22635.2230566144,47854.8394323196,1.44905612857319,103.785110659283,103.785110659283,Woodlands North
199,WOODLANDS NORTH MRT STATION (TE1),20,WOODLANDS NORTH COAST ROAD,WOODLANDS NORTH MRT STATION (TE1),20 WOODLANDS NORTH COAST ROAD WOODLANDS NORTH MRT STATION (TE1) SINGAPORE 737668,737668,22699.9912448721,47770.3945726696,1.44829245259621,103.785692682441,103.785692682441,Woodlands North
200,OCBC WOODLANDS NORTH PLAZA,883,WOODLANDS STREET 82,OCBC WOODLANDS NORTH PLAZA,883 WOODLANDS STREET 82 OCBC WOODLANDS NORTH PLAZA SINGAPORE 730883,730883,23286.7157086106,47169.1898147166,1.44285548185504,103.790965090129,103.790965090129,Woodlands North
201,DBS WOODLANDS NORTH PLAZA,883,WOODLANDS STREET 82,DBS WOODLANDS NORTH PLAZA,883 WOODLANDS STREET 82 DBS WOODLANDS NORTH PLAZA SINGAPORE 730883,730883,23265.0904146964,47167.0272883531,1.44283592110679,103.790770766025,103.790770766025,Woodlands North
202,UOB WOODLANDS NORTH PLAZA,883,WOODLANDS STREET 82,UOB WOODLANDS NORTH PLAZA,883 WOODLANDS STREET 82 UOB WOODLANDS NORTH PLAZA SINGAPORE 730883,730883,23280.9489010125,47168.829413835,1.44285222154947,103.790913269769,103.790913269769,Woodlands North
203,WOODLANDS NORTH PLAZA,883,WOODLANDS STREET 82,WOODLANDS NORTH PLAZA,883 WOODLANDS STREET 82 WOODLANDS NORTH PLAZA SINGAPORE 730883,730883,23240.3015716588,47157.8967089206,1.44275334327795,103.790548015512,103.790548015512,Woodlands North
204,LAYAR LRT STATION (SW6),11,SENGKANG WEST AVENUE,LAYAR LRT STATION (SW6),11 SENGKANG WEST AVENUE LAYAR LRT STATION (SW6) SINGAPORE 797700,797700,33198.3233218081,41554.6826597638,1.39207983659997,103.880029600546,103.880029600546,Layar
205,TAN KAH KEE DRIVE,,TAN KAH KEE DRIVE,NIL,TAN KAH KEE DRIVE,NIL,24712.2476135334,34293.8090134132,1.3264206950451,103.803769340703,103.803769340703,Tan Kah Kee
206,TAN KAH KEE MRT STATION (DT8),651,BUKIT TIMAH ROAD,TAN KAH KEE MRT STATION (DT8),651 BUKIT TIMAH ROAD TAN KAH KEE MRT STATION (DT8) SINGAPORE 266268,266268,25155.6221095249,34198.8053115103,1.32555623519898,103.807760304729,103.807760304729,Tan Kah Kee
207,TAN KAH KEE MRT STATION,651,BUKIT TIMAH ROAD,TAN KAH KEE MRT STATION,651 BUKIT TIMAH ROAD TAN KAH KEE MRT STATION SINGAPORE 266268,266268,25020.7282696236,34291.248031836,1.32639224146351,103.806548201692,103.806548201692,Tan Kah Kee
208,TAN KAH KEE MRT STATION EXIT A,,NIL,TAN KAH KEE MRT STATION EXIT A,TAN KAH KEE MRT STATION EXIT A,NIL,25159.8468238888,34173.5647793524,1.32532796917374,103.807798268409,103.807798268409,Tan Kah Kee
209,TAN KAH KEE MRT STATION EXIT B,,NIL,TAN KAH KEE MRT STATION EXIT B,TAN KAH KEE MRT STATION EXIT B,NIL,25158.1328085065,34264.8557423614,1.32615357209821,103.807782858593,103.807782858593,Tan Kah Kee
210,YISHUN (TOA PAYOH) SEU TECK SEAN TONG - NKF DIALYSIS CENTRE,203,YISHUN STREET 21,YISHUN (TOA PAYOH) SEU TECK SEAN TONG - NKF DIALYSIS CENTRE,203 YISHUN STREET 21 YISHUN (TOA PAYOH) SEU TECK SEAN TONG - NKF DIALYSIS CENTRE SINGAPORE 760203,760203,28386.2692677248,45827.1084155366,1.43071857830265,103.836789569146,103.836789569146,Yishun
211,YISHUN BEACON,936D,YISHUN CENTRAL 1,YISHUN BEACON,936D YISHUN CENTRAL 1 YISHUN BEACON SINGAPORE 764936,764936,28325.3781963056,45006.807979675,1.42330007851372,103.836242396587,103.836242396587,Yishun
212,YISHUN BEACON,936B,YISHUN CENTRAL 1,YISHUN BEACON,936B YISHUN CENTRAL 1 YISHUN BEACON SINGAPORE 762936,762936,28331.7414950589,45114.8180991188,1.42427688293576,103.836299577844,103.836299577844,Yishun
213,YISHUN BEACON,936C,YISHUN CENTRAL 1,YISHUN BEACON,936C YISHUN CENTRAL 1 YISHUN BEACON SINGAPORE 763936,763936,28341.6933356924,45056.5698161609,1.42375010639378,103.8363890035,103.8363890035,Yishun
214,YISHUN BEACON,936A,YISHUN CENTRAL 1,YISHUN BEACON,936A YISHUN CENTRAL 1 YISHUN BEACON SINGAPORE 761936,761936,28264.5778077655,45116.7099086363,1.42429399247954,103.835696050981,103.835696050981,Yishun
215,YISHUN BEACON,,NIL,YISHUN BEACON,YISHUN BEACON,NIL,28292.3770439262,45063.2807427067,1.42381079813692,103.835945851886,103.835945851886,Yishun
216,YISHUN BEACON,936E,YISHUN CENTRAL 1,YISHUN BEACON,936E YISHUN CENTRAL 1 YISHUN BEACON SINGAPORE 765936,765936,28273.3529199967,45008.6957938187,1.42331715176852,103.835774902327,103.835774902327,Yishun
217,YISHUN BOARDWALK,338,YISHUN AVENUE 6,YISHUN BOARDWALK,338 YISHUN AVENUE 6 YISHUN BOARDWALK SINGAPORE 760338,760338,29336.2584188646,46123.1896203831,1.43339620057408,103.845326124204,103.845326124204,Yishun
218,YISHUN BOARDWALK,339A,YISHUN AVENUE 6,YISHUN BOARDWALK,339A YISHUN AVENUE 6 YISHUN BOARDWALK SINGAPORE 761339,761339,29478.0767259374,46184.5087718964,1.43395074169096,103.846600499003,103.846600499003,Yishun
219,YISHUN BOARDWALK,337,YISHUN AVENUE 6,YISHUN BOARDWALK,337 YISHUN AVENUE 6 YISHUN BOARDWALK SINGAPORE 760337,760337,29545.243894049,46055.0590526182,1.43278004173205,103.847204052627,103.847204052627,Yishun
220,DOWNTOWN EAST,1,PASIR RIS CLOSE,DOWNTOWN EAST,1 PASIR RIS CLOSE DOWNTOWN EAST SINGAPORE 519599,519599,41545.7286940152,39878.0294110253,1.37691412455433,103.955036748549,103.955036748549,Downtown
221,DOWNTOWN EAST,,NIL,DOWNTOWN EAST,DOWNTOWN EAST,NIL,41516.4378213491,39973.3124789447,1.37777584209542,103.95477359289,103.95477359289,Downtown
222,DOWNTOWN GALLERY,6A,SHENTON WAY,DOWNTOWN GALLERY,6A SHENTON WAY DOWNTOWN GALLERY SINGAPORE 068815,068815,29710.4517250033,28878.2697737403,1.27743927179096,103.848687622624,103.848687622624,Downtown
223,DOWNTOWN MRT STATION (DT17),15,CENTRAL BOULEVARD,DOWNTOWN MRT STATION (DT17),15 CENTRAL BOULEVARD DOWNTOWN MRT STATION (DT17) SINGAPORE 018969,018969,30172.6688074525,29100.2087655049,1.27944638178916,103.852840829581,103.852840829581,Downtown
224,DOWNTOWN MRT STATION EXIT,,NIL,DOWNTOWN MRT STATION EXIT,DOWNTOWN MRT STATION EXIT,NIL,30105.4157993393,29007.5100083034,1.27860805131586,103.852236529778,103.852236529778,Downtown
225,DOWNTOWN MRT STATION EXIT A,,NIL,DOWNTOWN MRT STATION EXIT A,DOWNTOWN MRT STATION EXIT A,NIL,30150.7984942095,29138.1500765774,1.27978951118383,103.852644319125,103.852644319125,Downtown
226,DOWNTOWN MRT STATION EXIT B,,NIL,DOWNTOWN MRT STATION EXIT B,DOWNTOWN MRT STATION EXIT B,NIL,30180.9610545393,29119.100043254,1.27961722730227,103.852915339847,103.852915339847,Downtown
227,DOWNTOWN MRT STATION EXIT C,,NIL,DOWNTOWN MRT STATION EXIT C,DOWNTOWN MRT STATION EXIT C,NIL,30207.9485941818,29101.6375051402,1.27945930036359,103.853157831883,103.853157831883,Downtown
228,DOWNTOWN MRT STATION EXIT D,,NIL,DOWNTOWN MRT STATION EXIT D,DOWNTOWN MRT STATION EXIT D,NIL,30191.666870648,29069.1682520378,1.27916566096973,103.853011532212,103.853011532212,Downtown
229,DOWNTOWN MRT STATION EXIT E,,NIL,DOWNTOWN MRT STATION EXIT E,DOWNTOWN MRT STATION EXIT E,NIL,30129.1516494909,29109.1186005306,1.27952696217155,103.852449812084,103.852449812084,Downtown
230,BEDOK RESERVOIR CRESCENT,,BEDOK RESERVOIR CRESCENT,NIL,BEDOK RESERVOIR CRESCENT,NIL,37704.7223425021,35396.6084383756,1.33638919249374,103.920522330977,103.920522330977,Bedok Reservoir
231,BEDOK RESERVOIR VIEW,,BEDOK RESERVOIR VIEW,NIL,BEDOK RESERVOIR VIEW,NIL,39321.7635640996,35544.320144488,1.33772226878423,103.935051430356,103.935051430356,Bedok Reservoir
232,BEDOK RESERVOIR ROAD,,BEDOK RESERVOIR ROAD,NIL,BEDOK RESERVOIR ROAD,NIL,37822.1536506691,35466.4806635113,1.33701921598054,103.921576589266,103.921576589266,Bedok Reservoir
233,BEDOK RESERVOIR - PUNGGOL VALE,515,HOUGANG AVENUE 10,BEDOK RESERVOIR - PUNGGOL VALE,515 HOUGANG AVENUE 10 BEDOK RESERVOIR - PUNGGOL VALE SINGAPORE 530515,530515,34200.9018839374,39378.0945162941,1.37239536533304,103.889038095817,103.889038095817,Bedok Reservoir
234,BEDOK RESERVOIR - PUNGGOL VALE,511,HOUGANG AVENUE 10,BEDOK RESERVOIR - PUNGGOL VALE,511 HOUGANG AVENUE 10 BEDOK RESERVOIR - PUNGGOL VALE SINGAPORE 530511,530511,34166.5020480314,39342.5815450177,1.37207420608508,103.888728981515,103.888728981515,Bedok Reservoir
235,BEDOK RESERVOIR - PUNGGOL VALE,517,HOUGANG AVENUE 10,BEDOK RESERVOIR - PUNGGOL VALE,517 HOUGANG AVENUE 10 BEDOK RESERVOIR - PUNGGOL VALE SINGAPORE 530517,530517,34279.0419528456,39423.1460188869,1.37280277826625,103.889740249273,103.889740249273,Bedok Reservoir
236,PCF SPARKLETOTS PRESCHOOL@BEDOK RESERVOIR-PUNGGOL 508 (CC),508,HOUGANG AVENUE 10,PCF SPARKLETOTS PRESCHOOL@BEDOK RESERVOIR-PUNGGOL 508 (CC),508 HOUGANG AVENUE 10 PCF SPARKLETOTS PRESCHOOL@BEDOK RESERVOIR-PUNGGOL 508 (CC) SINGAPORE 530508,530508,34055.1692001391,39300.4949125033,1.37169361288918,103.887728568475,103.887728568475,Bedok Reservoir
237,BEDOK RESERVOIR - PUNGGOL VALE,509,HOUGANG AVENUE 10,BEDOK RESERVOIR - PUNGGOL VALE,509 HOUGANG AVENUE 10 BEDOK RESERVOIR - PUNGGOL VALE SINGAPORE 530509,530509,34106.4645337528,39357.7327290922,1.37221124042577,103.888189505076,103.888189505076,Bedok Reservoir
238,BEDOK RESERVOIR - PUNGGOL VALE,516,HOUGANG AVENUE 10,BEDOK RESERVOIR - PUNGGOL VALE,516 HOUGANG AVENUE 10 BEDOK RESERVOIR - PUNGGOL VALE SINGAPORE 530516,530516,34201.3897130312,39416.9102694169,1.37274640086423,103.88904248743,103.88904248743,Bedok Reservoir
239,BEDOK RESERVOIR - PUNGGOL VALE,508,HOUGANG AVENUE 10,BEDOK RESERVOIR - PUNGGOL VALE,508 HOUGANG AVENUE 10 BEDOK RESERVOIR - PUNGGOL VALE SINGAPORE 530508,530508,34055.1687763873,39300.4952151831,1.37169361562659,103.887728564668,103.887728564668,Bedok Reservoir
240,TIONG BAHRU ROAD,,TIONG BAHRU ROAD,NIL,TIONG BAHRU ROAD,NIL,28080.6503282804,29701.1313644978,1.28488132800849,103.834042986942,103.834042986942,Tiong Bahru
241,TIONG BAHRU ESTATE,1,YONG SIAK STREET,TIONG BAHRU ESTATE,1 YONG SIAK STREET TIONG BAHRU ESTATE SINGAPORE 168641,168641,27690.0680191237,29409.3871387821,1.2822425556884,103.830533720291,103.830533720291,Tiong Bahru
242,TIONG BAHRU ESTATE,3,YONG SIAK STREET,TIONG BAHRU ESTATE,3 YONG SIAK STREET TIONG BAHRU ESTATE SINGAPORE 168642,168642,27672.145619533,29425.4485416617,1.28238780920064,103.830372680413,103.830372680413,Tiong Bahru
243,TIONG BAHRU ESTATE,4,ENG HOON STREET,TIONG BAHRU ESTATE,4 ENG HOON STREET TIONG BAHRU ESTATE SINGAPORE 169794,169794,28217.6208750615,29549.1250062604,1.2835062967485,103.835273988232,103.835273988232,Tiong Bahru
244,TIONG BAHRU ESTATE,5,YONG SIAK STREET,TIONG BAHRU ESTATE,5 YONG SIAK STREET TIONG BAHRU ESTATE SINGAPORE 168643,168643,27668.5413080323,29429.333528176,1.28242294361819,103.830340294234,103.830340294234,Tiong Bahru
245,TIONG BAHRU ESTATE,6,ENG HOON STREET,TIONG BAHRU ESTATE,6 ENG HOON STREET TIONG BAHRU ESTATE SINGAPORE 169795,169795,28212.4124209601,29550.882789148,1.28352219355561,103.835227188241,103.835227188241,Tiong Bahru
246,TIONG BAHRU ESTATE,7,YONG SIAK STREET,TIONG BAHRU ESTATE,7 YONG SIAK STREET TIONG BAHRU ESTATE SINGAPORE 168644,168644,27664.8624767549,29434.8677868545,1.28247299347353,103.830307238448,103.830307238448,Tiong Bahru
247,TIONG BAHRU ESTATE,8,ENG HOON STREET,TIONG BAHRU ESTATE,8 ENG HOON STREET TIONG BAHRU ESTATE SINGAPORE 169758,169758,28207.1914056446,29552.6805257723,1.28353845168951,103.835180275382,103.835180275382,Tiong Bahru
248,PCF SPARKLETOTS PRESCHOOL @ TANJONG PAGAR-TIONG BAHRU BLK 1E (KN),1E,CANTONMENT ROAD,PCF SPARKLETOTS PRESCHOOL @ TANJONG PAGAR-TIONG BAHRU BLK 1E (KN),1E CANTONMENT ROAD PCF SPARKLETOTS PRESCHOOL @ TANJONG PAGAR-TIONG BAHRU BLK 1E (KN) SINGAPORE 085501,085501,28872.2584008342,28787.8613948673,1.27662168427368,103.841156142262,103.841156142262,Tiong Bahru
249,TIONG BAHRU ESTATE,9,YONG SIAK STREET,TIONG BAHRU ESTATE,9 YONG SIAK STREET TIONG BAHRU ESTATE SINGAPORE 168645,168645,27660.9730408471,29438.5346320085,1.2825061550932,103.830272290315,103.830272290315,Tiong Bahru
250,KEMBANGAN COURT,5,JALAN MASJID,KEMBANGAN COURT,5 JALAN MASJID KEMBANGAN COURT SINGAPORE 418924,418924,36788.6021618601,33542.7665294316,1.319622124356,103.912288714696,103.912288714696,Kembangan
251,KEMBANGAN COURT,,NIL,KEMBANGAN COURT,KEMBANGAN COURT,NIL,36775.9517791374,33539.5799463727,1.31959330968051,103.91217504363,103.91217504363,Kembangan
252,KEMBANGAN ESTATE,12,JALAN ISHAK,KEMBANGAN ESTATE,12 JALAN ISHAK KEMBANGAN ESTATE SINGAPORE 419339,419339,36230.2693392597,34153.1114314981,1.32514201836199,103.907271971764,103.907271971764,Kembangan
253,KEMBANGAN ESTATE,11,LORONG SALLEH,KEMBANGAN ESTATE,11 LORONG SALLEH KEMBANGAN ESTATE SINGAPORE 416763,416763,36167.3349670637,33965.8170528263,1.32344821257283,103.906706423115,103.906706423115,Kembangan
254,KEMBANGAN ESTATE,10A,LORONG SALLEH,KEMBANGAN ESTATE,10A LORONG SALLEH KEMBANGAN ESTATE SINGAPORE 416762,416762,36205.7602329291,34024.5207781345,1.32397909755658,103.907051710031,103.907051710031,Kembangan
255,KEMBANGAN ESTATE,12,JALAN ISMAIL,KEMBANGAN ESTATE,12 JALAN ISMAIL KEMBANGAN ESTATE SINGAPORE 419267,419267,36096.0709970882,33930.4390162211,1.32312828536018,103.90606606951,103.90606606951,Kembangan
256,KEMBANGAN ESTATE,10A,JALAN YASIN,KEMBANGAN ESTATE,10A JALAN YASIN KEMBANGAN ESTATE SINGAPORE 417985,417985,36129.8564231936,33723.9714740664,1.32126105846448,103.906369594743,103.906369594743,Kembangan
257,KEMBANGAN ESTATE,12,JALAN DAUD,KEMBANGAN ESTATE,12 JALAN DAUD KEMBANGAN ESTATE SINGAPORE 419556,419556,36174.4832357066,34212.2763500754,1.32567709951489,103.906770719685,103.906770719685,Kembangan
258,KEMBANGAN ESTATE,12,JALAN YASIN,KEMBANGAN ESTATE,12 JALAN YASIN KEMBANGAN ESTATE SINGAPORE 417986,417986,36140.9029962625,33725.4316318706,1.32127426066626,103.906468854316,103.906468854316,Kembangan
259,KEMBANGAN ESTATE,12,LORONG SALLEH,KEMBANGAN ESTATE,12 LORONG SALLEH KEMBANGAN ESTATE SINGAPORE 416764,416764,36208.4491800666,34012.7447769251,1.32387259893267,103.907075868494,103.907075868494,Kembangan
260,DAKOTA BREEZE,91,JALAN SATU,DAKOTA BREEZE,91 JALAN SATU DAKOTA BREEZE SINGAPORE 390091,390091,34099.9254385503,32424.4212532789,1.30950886274717,103.888129352423,103.888129352423,Dakota
261,DAKOTA BREEZE,91B,JALAN SATU,DAKOTA BREEZE,91B JALAN SATU DAKOTA BREEZE SINGAPORE 392091,392091,34180.904583795,32481.7021714766,1.31002687481222,103.888857000288,103.888857000288,Dakota
262,DAKOTA BREEZE,91A,JALAN SATU,DAKOTA BREEZE,91A JALAN SATU DAKOTA BREEZE SINGAPORE 391091,391091,34081.1892236816,32471.1236625072,1.30993122636998,103.887961007689,103.887961007689,Dakota
263,DAKOTA BREEZE,92A,JALAN SATU,DAKOTA BREEZE,92A JALAN SATU DAKOTA BREEZE SINGAPORE 391092,391092,34193.7026137421,32423.7674345616,1.30950293116558,103.888971985194,103.888971985194,Dakota
264,DAKOTA BREEZE,92,JALAN SATU,DAKOTA BREEZE,92 JALAN SATU DAKOTA BREEZE SINGAPORE 390092,390092,34179.3790774159,32458.4448581468,1.30981654427805,103.888843288251,103.888843288251,Dakota
265,DAKOTA BREEZE,90,JALAN SATU,DAKOTA BREEZE,90 JALAN SATU DAKOTA BREEZE SINGAPORE 390090,390090,34049.1903047794,32494.5214192793,1.31014283362498,103.887673486561,103.887673486561,Dakota
266,DAKOTA BREEZE,90A,JALAN SATU,DAKOTA BREEZE,90A JALAN SATU DAKOTA BREEZE SINGAPORE 391090,391090,34069.5206435462,32527.8918410596,1.31044461981807,103.88785617098,103.88785617098,Dakota
267,DAKOTA BREEZE,90B,JALAN SATU,DAKOTA BREEZE,90B JALAN SATU DAKOTA BREEZE SINGAPORE 392090,392090,34151.9060393153,32543.846095277,1.31058888807334,103.88859644672,103.88859644672,Dakota
268,DAKOTA BREEZE,,NIL,DAKOTA BREEZE,DAKOTA BREEZE,NIL,34124.890350448,32475.5926394984,1.3099716335578,103.888353684225,103.888353684225,Dakota
269,DAKOTA CREST,22A,JALAN ENAM,DAKOTA CREST,22A JALAN ENAM DAKOTA CREST SINGAPORE 391022,391022,33780.0526904622,32154.1705943961,1.30706487364853,103.885255092016,103.885255092016,Dakota
270,MAYFLOWER CRESCENT PLAYGROUND,,NIL,MAYFLOWER CRESCENT PLAYGROUND,MAYFLOWER CRESCENT PLAYGROUND,NIL,28692.9598548841,39414.364853058,1.3727240259156,103.839545318136,103.839545318136,Mayflower
271,MAYFLOWER GARDENS,8,MAYFLOWER AVENUE,MAYFLOWER GARDENS,8 MAYFLOWER AVENUE MAYFLOWER GARDENS SINGAPORE 568867,568867,28601.5478199394,39399.2137597892,1.37258700684807,103.838723915393,103.838723915393,Mayflower
272,MAYFLOWER GARDENS,8,MAYFLOWER DRIVE,MAYFLOWER GARDENS,8 MAYFLOWER DRIVE MAYFLOWER GARDENS SINGAPORE 568798,568798,28621.8224656172,39473.814078806,1.3732616650505,103.83890609912,103.83890609912,Mayflower
273,MAYFLOWER GARDENS,38,MAYFLOWER ROAD,MAYFLOWER GARDENS,38 MAYFLOWER ROAD MAYFLOWER GARDENS SINGAPORE 568627,568627,28855.2954660598,39145.1150958613,1.37028902306342,103.841004011815,103.841004011815,Mayflower
274,MAYFLOWER GARDENS,40,MAYFLOWER ROAD,MAYFLOWER GARDENS,40 MAYFLOWER ROAD MAYFLOWER GARDENS SINGAPORE 568629,568629,28861.3897127053,39148.0335348528,1.37031541620596,103.841058773003,103.841058773003,Mayflower
275,MAYFLOWER GARDENS,41,MAYFLOWER TERRACE,MAYFLOWER GARDENS,41 MAYFLOWER TERRACE MAYFLOWER GARDENS SINGAPORE 568584,568584,28846.7633754695,39321.5279830489,1.3718844384281,103.840927349991,103.840927349991,Mayflower
276,MAYFLOWER GARDENS,42,MAYFLOWER WAY,MAYFLOWER GARDENS,42 MAYFLOWER WAY MAYFLOWER GARDENS SINGAPORE 568526,568526,28846.1341343559,39346.8095585927,1.37211307598044,103.840921696532,103.840921696532,Mayflower
277,MAYFLOWER GARDENS,4,MAYFLOWER PLACE,MAYFLOWER GARDENS,4 MAYFLOWER PLACE MAYFLOWER GARDENS SINGAPORE 568685,568685,28665.3406829583,39494.4133788757,1.37344795680765,103.83929714194,103.83929714194,Mayflower
278,MAYFLOWER GARDENS,38,MAYFLOWER WAY,MAYFLOWER GARDENS,38 MAYFLOWER WAY MAYFLOWER GARDENS SINGAPORE 568524,568524,28832.8189759068,39345.1785380207,1.37209832599217,103.840802050306,103.840802050306,Mayflower
279,MAYFLOWER GARDENS,38,MAYFLOWER TERRACE,MAYFLOWER GARDENS,38 MAYFLOWER TERRACE MAYFLOWER GARDENS SINGAPORE 568581,568581,28831.0992096085,39279.0479575489,1.3715002647029,103.840786595131,103.840786595131,Mayflower
280,CASHEW CRESCENT FITNESS CORNER PLAYGROUND,,NIL,CASHEW CRESCENT FITNESS CORNER PLAYGROUND,CASHEW CRESCENT FITNESS CORNER PLAYGROUND,NIL,20881.8207344282,39353.7701657359,1.37217517648597,103.769356680695,103.769356680695,Cashew
281,CASHEW ESTATE,49,CASHEW TERRACE,CASHEW ESTATE,49 CASHEW TERRACE CASHEW ESTATE SINGAPORE 679581,679581,20481.2581727514,39281.3331903201,1.37151998323155,103.765757361498,103.765757361498,Cashew
282,CASHEW ESTATE,44,CASHEW TERRACE,CASHEW ESTATE,44 CASHEW TERRACE CASHEW ESTATE SINGAPORE 679576,679576,20539.5174429864,39245.4428075552,1.37119541847121,103.766280871069,103.766280871069,Cashew
283,CASHEW ESTATE,46,CASHEW TERRACE,CASHEW ESTATE,46 CASHEW TERRACE CASHEW ESTATE SINGAPORE 679578,679578,20547.3746786118,39249.5275627617,1.37123236150155,103.766351472824,103.766351472824,Cashew
284,CASHEW ESTATE,69,CASHEW TERRACE,CASHEW ESTATE,69 CASHEW TERRACE CASHEW ESTATE SINGAPORE 679596,679596,20558.277993314,39305.9664256517,1.37174277682101,103.766449432599,103.766449432599,Cashew
285,CASHEW ESTATE,71,CASHEW ROAD,CASHEW ESTATE,71 CASHEW ROAD CASHEW ESTATE SINGAPORE 679647,679647,20652.7439467441,39343.1787626054,1.37207933539852,103.767298266531,103.767298266531,Cashew
286,CASHEW ESTATE,7,CASHEW TERRACE,CASHEW ESTATE,7 CASHEW TERRACE CASHEW ESTATE SINGAPORE 679545,679545,20419.8398633236,39181.5888032094,1.37061791552324,103.765205500275,103.765205500275,Cashew
287,CASHEW ESTATE,65,CASHEW TERRACE,CASHEW ESTATE,65 CASHEW TERRACE CASHEW ESTATE SINGAPORE 679594,679594,20544.4132893533,39301.5454536825,1.37170279165028,103.766324849577,103.766324849577,Cashew
288,CASHEW ESTATE,57,CASHEW ROAD,CASHEW ESTATE,57 CASHEW ROAD CASHEW ESTATE SINGAPORE 679640,679640,20621.9293535091,39316.3728308659,1.37183690458596,103.767021382331,103.767021382331,Cashew
289,CASHEW ESTATE,6,CASHEW TERRACE,CASHEW ESTATE,6 CASHEW TERRACE CASHEW ESTATE SINGAPORE 679544,679544,20454.8489937419,39197.9368438944,1.37076577024364,103.765520077666,103.765520077666,Cashew
290,PASIR PANJANG MAY STREET 1,,PASIR PANJANG MAY STREET 1,NIL,PASIR PANJANG MAY STREET 1,NIL,19320.137334506,29352.7058747429,1.28172875609119,103.755326686865,103.755326686865,Pasir Panjang
291,PASIR PANJANG TERMINAL AVENUE 1,,PASIR PANJANG TERMINAL AVENUE 1,NIL,PASIR PANJANG TERMINAL AVENUE 1,NIL,20919.8438278196,30125.9647573964,1.2887199813096,103.769704244902,103.769704244902,Pasir Panjang
292,PASIR PANJANG DRIVE 1,,PASIR PANJANG DRIVE 1,NIL,PASIR PANJANG DRIVE 1,NIL,20659.3347826927,29950.5518182499,1.2871358187184,103.767359704019,103.767359704019,Pasir Panjang
293,PASIR PANJANG TERMINAL AVENUE 2,,PASIR PANJANG TERMINAL AVENUE 2,NIL,PASIR PANJANG TERMINAL AVENUE 2,NIL,21184.7738481474,29039.8163680408,1.27889942010595,103.77208114282,103.77208114282,Pasir Panjang
294,PASIR PANJANG MAY STREET 2,,PASIR PANJANG MAY STREET 2,NIL,PASIR PANJANG MAY STREET 2,NIL,19391.6989901015,29471.9753209138,1.28280740576667,103.75596966297,103.75596966297,Pasir Panjang
295,PASIR PANJANG DRIVE 2,,PASIR PANJANG DRIVE 2,NIL,PASIR PANJANG DRIVE 2,NIL,21071.8527404977,29244.7291696721,1.28075200485809,103.771066129524,103.771066129524,Pasir Panjang
296,PASIR PANJANG TERMINAL AVENUE 3,,PASIR PANJANG TERMINAL AVENUE 3,NIL,PASIR PANJANG TERMINAL AVENUE 3,NIL,20176.0147886975,28904.7298937663,1.27767764035306,103.763017171649,103.763017171649,Pasir Panjang
297,PASIR PANJANG DRIVE 3,,PASIR PANJANG DRIVE 3,NIL,PASIR PANJANG DRIVE 3,NIL,20153.867250992,29320.9341775952,1.2814416369821,103.762818064749,103.762818064749,Pasir Panjang
298,PASIR PANJANG DRIVE 4,,PASIR PANJANG DRIVE 4,NIL,PASIR PANJANG DRIVE 4,NIL,19035.4485185418,29539.6695658014,1.28341474404961,103.752765975396,103.752765975396,Pasir Panjang
299,PASIR PANJANG DRIVE 5,,PASIR PANJANG DRIVE 5,NIL,PASIR PANJANG DRIVE 5,NIL,19935.806145157,28564.0069495137,1.27459620423633,103.760858889068,103.760858889068,Pasir Panjang
300,TAI SENG AVENUE,,TAI SENG AVENUE,NIL,TAI SENG AVENUE,NIL,34371.7121490874,35548.2832121574,1.33776069388241,103.890570357887,103.890570357887,Tai Seng
301,TAI SENG DRIVE,,TAI SENG DRIVE,NIL,TAI SENG DRIVE,NIL,34665.778549121,35548.4258553109,1.33775848568757,103.893213182215,103.893213182215,Tai Seng
302,TAI SENG LINK,,TAI SENG LINK,NIL,TAI SENG LINK,NIL,34337.1821614323,35451.2480774223,1.33688351551023,103.890262383654,103.890262383654,Tai Seng
303,TAI SENG STREET,,TAI SENG STREET,NIL,TAI SENG STREET,NIL,34246.2554581034,35376.2237108879,1.33620537032654,103.889444065787,103.889444065787,Tai Seng
304,TAI SENG EXCHANGE,1,TAI SENG AVENUE,TAI SENG EXCHANGE,1 TAI SENG AVENUE TAI SENG EXCHANGE SINGAPORE 536464,536464,34619.1618027464,35344.7780530155,1.33591941562407,103.892795568702,103.892795568702,Tai Seng
305,TAI SENG EXCHANGE (TOWER A),1,TAI SENG AVENUE,TAI SENG EXCHANGE (TOWER A),1 TAI SENG AVENUE TAI SENG EXCHANGE (TOWER A) SINGAPORE 536464,536464,34622.764237632,35366.447205238,1.3361153828581,103.892827943361,103.892827943361,Tai Seng
306,TAI SENG EXCHANGE (BLOCK F),1,TAI SENG AVENUE,TAI SENG EXCHANGE (BLOCK F),1 TAI SENG AVENUE TAI SENG EXCHANGE (BLOCK F) SINGAPORE 536464,536464,34589.6912593273,35300.3012486305,1.33551718982603,103.892530749327,103.892530749327,Tai Seng
307,TAI SENG EXCHANGE (BLOCK I),1,TAI SENG AVENUE,TAI SENG EXCHANGE (BLOCK I),1 TAI SENG AVENUE TAI SENG EXCHANGE (BLOCK I) SINGAPORE 536464,536464,34675.0195506169,35364.4628362264,1.33609742545092,103.893297486943,103.893297486943,Tai Seng
308,TAI SENG EXCHANGE (CENTRAL COURTYARD),1,TAI SENG AVENUE,TAI SENG EXCHANGE (CENTRAL COURTYARD),1 TAI SENG AVENUE TAI SENG EXCHANGE (CENTRAL COURTYARD) SINGAPORE 536464,536464,34557.9412037879,35350.5721926019,1.33597182907417,103.892245467725,103.892245467725,Tai Seng
309,TAI SENG EXCHANGE (TOWER B),3,TAI SENG AVENUE,TAI SENG EXCHANGE (TOWER B),3 TAI SENG AVENUE TAI SENG EXCHANGE (TOWER B) SINGAPORE 536465,536465,34527.5140710119,35295.6710340884,1.3354753293063,103.891972050694,103.891972050694,Tai Seng
310,ORCHARD BOULEVARD,,ORCHARD BOULEVARD,NIL,ORCHARD BOULEVARD,NIL,27680.9322474654,31821.6122136785,1.3040517438791,103.830461436174,103.830461436174,Orchard Boulevard
311,ORCHARD BOULEVARD MRT STATION EXIT 1,,NIL,ORCHARD BOULEVARD MRT STATION EXIT 1,ORCHARD BOULEVARD MRT STATION EXIT 1,NIL,26924.0187065573,31773.5363218598,1.30362307278619,103.82365038919,103.82365038919,Orchard Boulevard
312,ORCHARD BOULEVARD MRT STATION EXIT 2,,NIL,ORCHARD BOULEVARD MRT STATION EXIT 2,ORCHARD BOULEVARD MRT STATION EXIT 2,NIL,26951.5984998364,31645.9053149186,1.30246882387243,103.823898210692,103.823898210692,Orchard Boulevard
313,ORCHARD BOULEVARD MRT STATION (TE13),20,ORCHARD BOULEVARD,ORCHARD BOULEVARD MRT STATION (TE13),20 ORCHARD BOULEVARD ORCHARD BOULEVARD MRT STATION (TE13) SINGAPORE 248654,248654,26948.2945375377,31640.7552477568,1.30242224836722,103.823868523249,103.823868523249,Orchard Boulevard
314,SKYLINE @ ORCHARD BOULEVARD,23,ANGULLIA PARK,SKYLINE @ ORCHARD BOULEVARD,23 ANGULLIA PARK SKYLINE @ ORCHARD BOULEVARD SINGAPORE 239975,239975,27583.6573507432,31721.6979503501,1.30315428073007,103.829577548446,103.829577548446,Orchard Boulevard
315,SKYLINE @ ORCHARD BOULEVARD,,NIL,SKYLINE @ ORCHARD BOULEVARD,SKYLINE @ ORCHARD BOULEVARD,NIL,27591.2025839929,31725.4122859724,1.30318787197398,103.829645345799,103.829645345799,Orchard Boulevard
316,KADALOOR LRT STATION (PE5),60,PUNGGOL DRIVE,KADALOOR LRT STATION (PE5),60 PUNGGOL DRIVE KADALOOR LRT STATION (PE5) SINGAPORE 828853,828853,37265.3166702027,42376.2865863442,1.39950910636258,103.916574974234,103.916574974234,Kadaloor
317,AVIATION PARK ROAD,,AVIATION PARK ROAD,NIL,AVIATION PARK ROAD,NIL,48328.2588463602,38563.7547992094,1.36502438376394,104.015981790092,104.015981790092,Aviation Park
318,JTC AVIATION TWO @ SELETAR AEROSPACE PARK,690,WEST CAMP ROAD,JTC AVIATION TWO @ SELETAR AEROSPACE PARK,690 WEST CAMP ROAD JTC AVIATION TWO @ SELETAR AEROSPACE PARK SINGAPORE 797523,797523,31406.7834914783,44639.2169380207,1.41997551595813,103.863931571843,103.863931571843,Aviation Park
319,JTC AVIATION ONE @ SELETAR AEROSPACE PARK,700,WEST CAMP ROAD,JTC AVIATION ONE @ SELETAR AEROSPACE PARK,700 WEST CAMP ROAD JTC AVIATION ONE @ SELETAR AEROSPACE PARK SINGAPORE 797649,797649,31427.7836304577,44679.6721564811,1.42034137577486,103.864120281676,103.864120281676,Aviation Park
320,HOLLAND VILLAGE WAY,,HOLLAND VILLAGE WAY,NIL,HOLLAND VILLAGE WAY,NIL,23731.9443555092,32479.0426599523,1.31000314658928,103.794968029324,103.794968029324,Holland Village
321,HOLLAND VILLAGE MARKET & FOOD CENTRE,1,LORONG MAMBONG,HOLLAND VILLAGE MARKET & FOOD CENTRE,1 LORONG MAMBONG HOLLAND VILLAGE MARKET & FOOD CENTRE SINGAPORE 277700,277700,23721.7508704271,32597.3388542421,1.31107297402127,103.794876419662,103.794876419662,Holland Village
322,ONE HOLLAND VILLAGE RESIDENCES,1,HOLLAND VILLAGE WAY,ONE HOLLAND VILLAGE RESIDENCES,1 HOLLAND VILLAGE WAY ONE HOLLAND VILLAGE RESIDENCES SINGAPORE 275754,275754,23546.449060387,32739.8945196643,1.3123621720005,103.793301226982,103.793301226982,Holland Village
323,HOLLAND VILLAGE,2,LORONG MAMBONG,HOLLAND VILLAGE,2 LORONG MAMBONG HOLLAND VILLAGE SINGAPORE 277671,277671,23770.4366195565,32589.7638675645,1.31100447525253,103.795313885882,103.795313885882,Holland Village
324,ONE HOLLAND VILLAGE RESIDENCES,3,HOLLAND VILLAGE WAY,ONE HOLLAND VILLAGE RESIDENCES,3 HOLLAND VILLAGE WAY ONE HOLLAND VILLAGE RESIDENCES SINGAPORE 275753,275753,23591.3485268969,32768.5809709653,1.31262160854589,103.793704666689,103.793704666689,Holland Village
325,HOLLAND VILLAGE,4,LORONG MAMBONG,HOLLAND VILLAGE,4 LORONG MAMBONG HOLLAND VILLAGE SINGAPORE 277672,277672,23769.8914629016,32596.2977566738,1.31106356535272,103.795308986493,103.795308986493,Holland Village
326,ONE HOLLAND VILLAGE RESIDENCES,5,HOLLAND VILLAGE WAY,ONE HOLLAND VILLAGE RESIDENCES,5 HOLLAND VILLAGE WAY ONE HOLLAND VILLAGE RESIDENCES SINGAPORE 275752,275752,23599.0948000941,32711.2209322583,1.31210286582964,103.793774278922,103.793774278922,Holland Village
327,HOLLAND VILLAGE,6,LORONG MAMBONG,HOLLAND VILLAGE,6 LORONG MAMBONG HOLLAND VILLAGE SINGAPORE 277673,277673,23768.4183806702,32603.8566710502,1.31113192529026,103.795295749099,103.795295749099,Holland Village
328,ONE HOLLAND VILLAGE,7,HOLLAND VILLAGE WAY,ONE HOLLAND VILLAGE,7 HOLLAND VILLAGE WAY ONE HOLLAND VILLAGE SINGAPORE 275748,275748,23640.4115361758,32594.7077794895,1.31104916811064,103.794145546471,103.794145546471,Holland Village
329,HOLLAND VILLAGE,8,LORONG MAMBONG,HOLLAND VILLAGE,8 LORONG MAMBONG HOLLAND VILLAGE SINGAPORE 277674,277674,23767.9382093763,32610.5662355367,1.31119260414506,103.79529143361,103.79529143361,Holland Village
330,MARINA SOUTH PIER MRT STATION (NS28),33,MARINA COASTAL DRIVE,MARINA SOUTH PIER MRT STATION (NS28),33 MARINA COASTAL DRIVE MARINA SOUTH PIER MRT STATION (NS28) SINGAPORE 018948,018948,31241.8260070179,28169.2510934137,1.27102703612006,103.862447515736,103.862447515736,Marina South Pier
331,MARINA SOUTH PIER,31,MARINA COASTAL DRIVE,MARINA SOUTH PIER,31 MARINA COASTAL DRIVE MARINA SOUTH PIER SINGAPORE 018988,018988,31319.9049345991,28087.8403267208,1.27029077767613,103.863149073604,103.863149073604,Marina South Pier
332,MARINA SOUTH PIER (VISIT WWW.SLA.GOV.SG/ISLANDS FOR MORE INFORMATION ON FERRY SERVICES),31,MARINA COASTAL DRIVE,MARINA SOUTH PIER (VISIT WWW.SLA.GOV.SG/ISLANDS FOR MORE INFORMATION ON FERRY SERVICES),31 MARINA COASTAL DRIVE MARINA SOUTH PIER (VISIT WWW.SLA.GOV.SG/ISLANDS FOR MORE INFORMATION ON FERRY SERVICES) SINGAPORE 018988,018988,31331.7305147648,28150.9180480894,1.27086122920424,103.863255337086,103.863255337086,Marina South Pier
333,MARINA SOUTH PIER CHECKPOINT,31,MARINA COASTAL DRIVE,MARINA SOUTH PIER CHECKPOINT,31 MARINA COASTAL DRIVE MARINA SOUTH PIER CHECKPOINT SINGAPORE 018988,018988,31339.7697517769,28152.1325812042,1.2708722121721,103.863327572547,103.863327572547,Marina South Pier
334,MARINA SOUTH PIER MRT STATION EXIT A,,NIL,MARINA SOUTH PIER MRT STATION EXIT A,MARINA SOUTH PIER MRT STATION EXIT A,NIL,31223.2474278081,28130.3504991326,1.27067523469027,103.862280576826,103.862280576826,Marina South Pier
335,MARINA SOUTH PIER MRT STATION EXIT B,,NIL,MARINA SOUTH PIER MRT STATION EXIT B,MARINA SOUTH PIER MRT STATION EXIT B,NIL,31366.1227231398,28219.2506849132,1.27147920195277,103.863564370201,103.863564370201,Marina South Pier
336,MARINA SOUTH PIER,,NIL,MARINA SOUTH PIER,MARINA SOUTH PIER,NIL,31587.8265932063,27849.7991611045,1.26813798789935,103.865556415492,103.865556415492,Marina South Pier
337,HONG KAH POINT,502,JURONG WEST AVENUE 1,HONG KAH POINT,502 JURONG WEST AVENUE 1 HONG KAH POINT SINGAPORE 640502,640502,15203.5743513219,36957.3883343861,1.35050127679181,103.718334683095,103.718334683095,Hong Kah
338,HONG KAH POINT,503,JURONG WEST AVENUE 1,HONG KAH POINT,503 JURONG WEST AVENUE 1 HONG KAH POINT SINGAPORE 640503,640503,15133.4734891569,36897.032885205,1.34995541462242,103.71770480961,103.71770480961,Hong Kah
339,PCF SPARKLETOTS PRESCHOOL @ HONG KAH NORTH 419 (CC),419,BUKIT BATOK WEST AVENUE 2,PCF SPARKLETOTS PRESCHOOL @ HONG KAH NORTH 419 (CC),419 BUKIT BATOK WEST AVENUE 2 PCF SPARKLETOTS PRESCHOOL @ HONG KAH NORTH 419 (CC) SINGAPORE 650419,650419,18285.9711045697,38206.5720854439,1.36179959646874,103.746031517905,103.746031517905,Hong Kah
340,PCF SPARKLETOTS PRESCHOOL @ HONG KAH NORTH 275A (CC),275A,JURONG WEST STREET 25,PCF SPARKLETOTS PRESCHOOL @ HONG KAH NORTH 275A (CC),275A JURONG WEST STREET 25 PCF SPARKLETOTS PRESCHOOL @ HONG KAH NORTH 275A (CC) SINGAPORE 641275,641275,13410.3362146933,37168.860808719,1.35241293267711,103.702221239788,103.702221239788,Hong Kah
341,PCF SPARKLETOTS PRESCHOOL @ HONG KAH NORTH BLK 276D (KN),276D,JURONG WEST STREET 25,PCF SPARKLETOTS PRESCHOOL @ HONG KAH NORTH BLK 276D (KN),276D JURONG WEST STREET 25 PCF SPARKLETOTS PRESCHOOL @ HONG KAH NORTH BLK 276D (KN) SINGAPORE 644276,644276,13654.0555027165,37283.2634960562,1.35344766528144,103.704411153076,103.704411153076,Hong Kah
342,HONG KAH NORTH COMMUNITY CLUB,30,BUKIT BATOK STREET 31,HONG KAH NORTH COMMUNITY CLUB,30 BUKIT BATOK STREET 31 HONG KAH NORTH COMMUNITY CLUB SINGAPORE 659440,659440,18670.4954486424,37900.6859002206,1.35903339724932,103.749486819843,103.749486819843,Hong Kah
343,HONG KAH EAST GARDEN,301,JURONG EAST STREET 32,HONG KAH EAST GARDEN,301 JURONG EAST STREET 32 HONG KAH EAST GARDEN SINGAPORE 600301,600301,17113.8650464583,36243.0089822672,1.34404144956674,103.735500080389,103.735500080389,Hong Kah
344,HONG KAH GREEN,301,BUKIT BATOK STREET 31,HONG KAH GREEN,301 BUKIT BATOK STREET 31 HONG KAH GREEN SINGAPORE 650301,650301,18591.1870355625,37650.3501520287,1.35676942740178,103.748774260571,103.748774260571,Hong Kah
345,HONG KAH EAST GARDEN,302,JURONG EAST STREET 32,HONG KAH EAST GARDEN,302 JURONG EAST STREET 32 HONG KAH EAST GARDEN SINGAPORE 600302,600302,17000.9256345257,36310.6384635605,1.34465302453655,103.734485227961,103.734485227961,Hong Kah
346,HONG KAH GREEN,302,BUKIT BATOK STREET 31,HONG KAH GREEN,302 BUKIT BATOK STREET 31 HONG KAH GREEN SINGAPORE 650302,650302,18552.1158206565,37688.8124961741,1.35711725438592,103.748423168363,103.748423168363,Hong Kah
347,SENJA CENTRE,628,SENJA ROAD,SENJA CENTRE,628 SENJA ROAD SENJA CENTRE SINGAPORE 670628,670628,19886.2763911784,40786.13172861,1.38512867383046,103.760410617887,103.760410617887,Senja
348,SENJA GATEWAY,635B,SENJA ROAD,SENJA GATEWAY,635B SENJA ROAD SENJA GATEWAY SINGAPORE 672635,672635,19585.7892575506,40949.1374124084,1.38660275237577,103.757710467868,103.757710467868,Senja
349,SENJA GATEWAY,635A,SENJA ROAD,SENJA GATEWAY,635A SENJA ROAD SENJA GATEWAY SINGAPORE 671635,671635,19529.8789341915,40944.6615645848,1.38656225824527,103.757208072494,103.757208072494,Senja
350,SENJA GATEWAY,635D,SENJA ROAD,SENJA GATEWAY,635D SENJA ROAD SENJA GATEWAY SINGAPORE 674635,674635,19577.42454891,41000.9880727194,1.3870716683338,103.757635289717,103.757635289717,Senja
351,SENJA GATEWAY,634B,SENJA ROAD,SENJA GATEWAY,634B SENJA ROAD SENJA GATEWAY SINGAPORE 672634,672634,19654.5804845961,40895.7422979604,1.38611988630201,103.758328624429,103.758328624429,Senja
352,SENJA GATEWAY,,NIL,SENJA GATEWAY,SENJA GATEWAY,NIL,19583.9335274687,40926.7595050801,1.38640037424357,103.757693799149,103.757693799149,Senja
353,SENJA GATEWAY,634,SENJA ROAD,SENJA GATEWAY,634 SENJA ROAD SENJA GATEWAY SINGAPORE 670634,670634,19570.310029069,40912.3458609656,1.38627001858805,103.757571385835,103.757571385835,Senja
354,SENJA GATEWAY,635,SENJA ROAD,SENJA GATEWAY,635 SENJA ROAD SENJA GATEWAY SINGAPORE 670635,670635,19562.2824754994,40985.0458651595,1.3869274884666,103.757499231264,103.757499231264,Senja
355,SENJA GATEWAY,635C,SENJA ROAD,SENJA GATEWAY,635C SENJA ROAD SENJA GATEWAY SINGAPORE 673635,673635,19666.3020034339,40937.9798466433,1.38650187058094,103.758433939145,103.758433939145,Senja
356,SENJA GATEWAY,634A,SENJA ROAD,SENJA GATEWAY,634A SENJA ROAD SENJA GATEWAY SINGAPORE 671634,671634,19575.1241518799,40860.162434442,1.38579809218637,103.757614659363,103.757614659363,Senja
357,UPPER CHANGI ROAD,,UPPER CHANGI ROAD,NIL,UPPER CHANGI ROAD,NIL,42060.6403081622,35518.0718093459,1.33748407521777,103.959661548482,103.959661548482,Upper Changi
358,UPPER CHANGI LINK,,UPPER CHANGI LINK,NIL,UPPER CHANGI LINK,NIL,41872.2968411739,35424.7046442609,1.33663978478535,103.957969133675,103.957969133675,Upper Changi
359,UPPER CHANGI ROAD NORTH,,UPPER CHANGI ROAD NORTH,NIL,UPPER CHANGI ROAD NORTH,NIL,43726.5210817179,38405.8615147536,1.36359889649663,103.974631776257,103.974631776257,Upper Changi
360,NEW UPPER CHANGI ROAD,,NEW UPPER CHANGI ROAD,NIL,NEW UPPER CHANGI ROAD,NIL,39295.9496648961,34093.6656673344,1.32460351057971,103.934819329056,103.934819329056,Upper Changi
361,UPPER CHANGI ROAD EAST,,UPPER CHANGI ROAD EAST,NIL,UPPER CHANGI ROAD EAST,NIL,42151.3505625871,35657.4809896194,1.33876374787014,103.960486411504,103.960486411504,Upper Changi
362,UPPER CHANGI FIRE POST,5,TANAH MERAH BESAR ROAD,UPPER CHANGI FIRE POST,5 TANAH MERAH BESAR ROAD UPPER CHANGI FIRE POST SINGAPORE 498836,498836,43534.1963547319,38191.7003656644,1.36166262713271,103.972903653336,103.972903653336,Upper Changi
363,UPPER CHANGI ROAD 14KM,,NIL,UPPER CHANGI ROAD 14KM,UPPER CHANGI ROAD 14KM,NIL,40591.3011668157,34979.0859943926,1.33261033628247,103.946458483636,103.946458483636,Upper Changi
364,UPPER CHANGI ROAD NORTH 18KM,,NIL,UPPER CHANGI ROAD NORTH 18KM,UPPER CHANGI ROAD NORTH 18KM,NIL,43092.970361134,37601.7237584163,1.3563273316583,103.968938654646,103.968938654646,Upper Changi
365,UPPER CHANGI ROAD NORTH 19KM,,NIL,UPPER CHANGI ROAD NORTH 19KM,UPPER CHANGI ROAD NORTH 19KM,NIL,43645.5470001986,38321.8246977646,1.36283936312876,103.973904279045,103.973904279045,Upper Changi
366,HAWKER CENTRE (BLK 208B NEW UPPER CHANGI ROAD),208B,NEW UPPER CHANGI ROAD,HAWKER CENTRE (BLK 208B NEW UPPER CHANGI ROAD),208B NEW UPPER CHANGI ROAD HAWKER CENTRE (BLK 208B NEW UPPER CHANGI ROAD) SINGAPORE 462208,462208,38823.1433841754,34113.4328592326,1.32478236985627,103.930570304559,103.930570304559,Upper Changi
367,BENDEMEER INDUSTRIAL ESTATE,38,BENDEMEER ROAD,BENDEMEER INDUSTRIAL ESTATE,38 BENDEMEER ROAD BENDEMEER INDUSTRIAL ESTATE SINGAPORE 339930,339930,31172.3911010297,33033.2601718158,1.31501542616849,103.86182410937,103.86182410937,Bendemeer
368,BENDEMEER INDUSTRIAL ESTATE,60,BENDEMEER ROAD,BENDEMEER INDUSTRIAL ESTATE,60 BENDEMEER ROAD BENDEMEER INDUSTRIAL ESTATE SINGAPORE 339938,339938,31210.0298533384,33133.3487059027,1.31592058750755,103.862162322857,103.862162322857,Bendemeer
369,BENDEMEER INDUSTRIAL ESTATE,50,BENDEMEER ROAD,BENDEMEER INDUSTRIAL ESTATE,50 BENDEMEER ROAD BENDEMEER INDUSTRIAL ESTATE SINGAPORE 339933,339933,31149.1372987879,33054.9764210228,1.31521182262607,103.861615164485,103.861615164485,Bendemeer
370,BENDEMEER INDUSTRIAL ESTATE,48,BENDEMEER ROAD,BENDEMEER INDUSTRIAL ESTATE,48 BENDEMEER ROAD BENDEMEER INDUSTRIAL ESTATE SINGAPORE 339932,339932,31136.5926724002,33038.9585435037,1.31506696389759,103.861502443081,103.861502443081,Bendemeer
371,BENDEMEER INDUSTRIAL ESTATE,54,BENDEMEER ROAD,BENDEMEER INDUSTRIAL ESTATE,54 BENDEMEER ROAD BENDEMEER INDUSTRIAL ESTATE SINGAPORE 339935,339935,31168.6936852112,33080.0512662381,1.31543858863458,103.861790891024,103.861790891024,Bendemeer
372,BENDEMEER INDUSTRIAL ESTATE,52,BENDEMEER ROAD,BENDEMEER INDUSTRIAL ESTATE,52 BENDEMEER ROAD BENDEMEER INDUSTRIAL ESTATE SINGAPORE 339934,339934,31156.3996474603,33064.2995048314,1.31529613654892,103.861680421293,103.861680421293,Bendemeer
373,BENDEMEER INDUSTRIAL ESTATE,46,BENDEMEER ROAD,BENDEMEER INDUSTRIAL ESTATE,46 BENDEMEER ROAD BENDEMEER INDUSTRIAL ESTATE SINGAPORE 339931,339931,31129.0604846515,33029.4836657569,1.31498127722648,103.86143476163,103.86143476163,Bendemeer
374,BENDEMEER LIGHT,10A,BENDEMEER ROAD,BENDEMEER LIGHT,10A BENDEMEER ROAD BENDEMEER LIGHT SINGAPORE 331010,331010,31025.6299414122,33030.6006148905,1.31499138887312,103.86050538635,103.86050538635,Bendemeer
375,BENDEMEER LIGHT,10B,BENDEMEER ROAD,BENDEMEER LIGHT,10B BENDEMEER ROAD BENDEMEER LIGHT SINGAPORE 332010,332010,31004.2108330028,33084.3137247767,1.31547715332072,103.860312930116,103.860312930116,Bendemeer
376,BENDEMEER LIGHT,,NIL,BENDEMEER LIGHT,BENDEMEER LIGHT,NIL,31040.4605875388,33079.6708884854,1.31543516158813,103.86063865198,103.86063865198,Bendemeer
377,CHENG LIM LRT STATION (SW1),5,ANCHORVALE STREET,CHENG LIM LRT STATION (SW1),5 ANCHORVALE STREET CHENG LIM LRT STATION (SW1) SINGAPORE 545047,545047,34730.4628995238,42018.8888330311,1.39627763344324,103.893797181731,103.893797181731,Cheng Lim
378,CHENG LIM SEE TEMPLE,10,JALAN SOO BEE,CHENG LIM SEE TEMPLE,10 JALAN SOO BEE CHENG LIM SEE TEMPLE SINGAPORE 488113,488113,41214.4751235144,35399.860879967,1.33641540177948,103.952058225813,103.952058225813,Cheng Lim
379,TECK LEE LRT STATION (PW2),101,PONGGOL SEVENTEENTH AVENUE,TECK LEE LRT STATION (PW2),101 PONGGOL SEVENTEENTH AVENUE TECK LEE LRT STATION (PW2) SINGAPORE 828861,828861,36152.699307289,43842.6720870361,1.4127708937463,103.906577622768,103.906577622768,Teck Lee
380,TENGAH COMMUNITY CENTRE (U/C),119,PLANTATION CRESCENT,TENGAH COMMUNITY CENTRE (U/C),119 PLANTATION CRESCENT TENGAH COMMUNITY CENTRE (U/C) SINGAPORE 690119,690119,17019.2478136458,37652.8963553552,1.35679191605789,103.734649374006,103.734649374006,Tengah Plantation
381,PLANTATION GROVE,120,TENGAH DRIVE,PLANTATION GROVE,120 TENGAH DRIVE PLANTATION GROVE SINGAPORE 690120,690120,17203.8082972253,37769.6365482714,1.35784773875571,103.736307726378,103.736307726378,Tengah Plantation
382,PLANTATION GROVE,120A,TENGAH DRIVE,PLANTATION GROVE,120A TENGAH DRIVE PLANTATION GROVE SINGAPORE 691120,691120,17262.6657536225,37826.2881648187,1.35836009636405,103.736836578343,103.736836578343,Tengah Plantation
383,PLANTATION GROVE,120B,TENGAH DRIVE,PLANTATION GROVE,120B TENGAH DRIVE PLANTATION GROVE SINGAPORE 692120,692120,17297.8202006314,37773.3222201131,1.35788110458066,103.737152482775,103.737152482775,Tengah Plantation
384,PLANTATION GROVE,120C,TENGAH DRIVE,PLANTATION GROVE,120C TENGAH DRIVE PLANTATION GROVE SINGAPORE 693120,693120,17270.0231437646,37742.7176866848,1.35760431846364,103.736902719215,103.736902719215,Tengah Plantation
385,PLANTATION GROVE,121A,TENGAH DRIVE,PLANTATION GROVE,121A TENGAH DRIVE PLANTATION GROVE SINGAPORE 691121,691121,17240.846411664,37693.2879202459,1.35715728336724,103.736640565201,103.736640565201,Tengah Plantation
386,PLANTATION GROVE,121B,TENGAH DRIVE,PLANTATION GROVE,121B TENGAH DRIVE PLANTATION GROVE SINGAPORE 692121,692121,17184.8932591081,37704.68811417,1.35726036223287,103.736137785993,103.736137785993,Tengah Plantation
387,PLANTATION GROVE,121C,TENGAH DRIVE,PLANTATION GROVE,121C TENGAH DRIVE PLANTATION GROVE SINGAPORE 693121,693121,17135.8646645276,37758.2631415129,1.35774485713201,103.735697213065,103.735697213065,Tengah Plantation
388,PLANTATION GROVE,122A,TENGAH DRIVE,PLANTATION GROVE,122A TENGAH DRIVE PLANTATION GROVE SINGAPORE 691122,691122,17191.2379733194,37789.7261052281,1.35802941672494,103.736194766642,103.736194766642,Tengah Plantation
389,PLANTATION GROVE,122B,TENGAH DRIVE,PLANTATION GROVE,122B TENGAH DRIVE PLANTATION GROVE SINGAPORE 692122,692122,17196.6112971287,37826.8050209098,1.35836474669637,103.73624303605,103.73624303605,Tengah Plantation
390,PHOENIX HEIGHTS,26,PHOENIX GARDEN,PHOENIX HEIGHTS,26 PHOENIX GARDEN PHOENIX HEIGHTS SINGAPORE 668293,668293,19795.38847664,39816.8917463422,1.37636319625676,103.75959419158,103.75959419158,Phoenix
391,PHOENIX HEIGHTS,24,PHOENIX GARDEN,PHOENIX HEIGHTS,24 PHOENIX GARDEN PHOENIX HEIGHTS SINGAPORE 668291,668291,19799.8011551825,39812.7616799641,1.37632584667788,103.759633843822,103.759633843822,Phoenix
392,PHOENIX HEIGHTS,22,PHOENIX GARDEN,PHOENIX HEIGHTS,22 PHOENIX GARDEN PHOENIX HEIGHTS SINGAPORE 668289,668289,19756.5097661112,39804.5307558123,1.37625139707807,103.759244841803,103.759244841803,Phoenix
393,PHOENIX HEIGHTS,80,PHOENIX GARDEN,PHOENIX HEIGHTS,80 PHOENIX GARDEN PHOENIX HEIGHTS SINGAPORE 668330,668330,19813.7799089067,39839.7576038372,1.37656999185865,103.759759445513,103.759759445513,Phoenix
394,PHOENIX HEIGHTS,8,PHOENIX GARDEN,PHOENIX HEIGHTS,8 PHOENIX GARDEN PHOENIX HEIGHTS SINGAPORE 668276,668276,19642.981914307,39827.0044007748,1.37645460840416,103.758224705964,103.758224705964,Phoenix
395,PHOENIX HEIGHTS,75,PHOENIX GARDEN,PHOENIX HEIGHTS,75 PHOENIX GARDEN PHOENIX HEIGHTS SINGAPORE 668325,668325,19826.5265438175,39788.0121247713,1.37610202819184,103.759873997541,103.759873997541,Phoenix
396,PHOENIX HEIGHTS,79,PHOENIX GARDEN,PHOENIX HEIGHTS,79 PHOENIX GARDEN PHOENIX HEIGHTS SINGAPORE 668329,668329,19796.9565700721,39778.8017892018,1.37601872503121,103.759608292606,103.759608292606,Phoenix
397,PHOENIX HEIGHTS,82,PHOENIX GARDEN,PHOENIX HEIGHTS,82 PHOENIX GARDEN PHOENIX HEIGHTS SINGAPORE 668332,668332,19815.5095728356,39833.9865587223,1.37651780111638,103.75977498939,103.75977498939,Phoenix
398,PHOENIX HEIGHTS,85,PHOENIX GARDEN,PHOENIX HEIGHTS,85 PHOENIX GARDEN PHOENIX HEIGHTS SINGAPORE 668335,668335,19755.2199867889,39766.6979857292,1.37590925096028,103.759233262766,103.759233262766,Phoenix
399,PHOENIX HEIGHTS,78,PHOENIX GARDEN,PHOENIX HEIGHTS,78 PHOENIX GARDEN PHOENIX HEIGHTS SINGAPORE 668328,668328,19810.1039530877,39845.1095584501,1.37661839195613,103.759726412914,103.759726412914,Phoenix
400,SOUTH BUONA VISTA ROAD,,SOUTH BUONA VISTA ROAD,NIL,SOUTH BUONA VISTA ROAD,NIL,22693.1952905324,29846.0656792979,1.28618901369947,103.785635666784,103.785635666784,Buona Vista
401,NORTH BUONA VISTA DRIVE,,NORTH BUONA VISTA DRIVE,NIL,NORTH BUONA VISTA DRIVE,NIL,23320.4964205543,31912.2080002732,1.30487607572838,103.791269367015,103.791269367015,Buona Vista
402,NORTH BUONA VISTA ROAD,,NORTH BUONA VISTA ROAD,NIL,NORTH BUONA VISTA ROAD,NIL,23017.7475134462,31862.9641485711,1.30442730838327,103.788544256325,103.788544256325,Buona Vista
403,BUONA VISTA GARDENS,2,ZEHNDER ROAD,BUONA VISTA GARDENS,2 ZEHNDER ROAD BUONA VISTA GARDENS SINGAPORE 117687,117687,22835.1528958939,29439.7895728815,1.28251708251467,103.786910425377,103.786910425377,Buona Vista
404,PCF SPARKLETOTS PRESCHOOL @ BUONA VISTA BLK 4 (DS),4,HOLLAND CLOSE,PCF SPARKLETOTS PRESCHOOL @ BUONA VISTA BLK 4 (DS),4 HOLLAND CLOSE PCF SPARKLETOTS PRESCHOOL @ BUONA VISTA BLK 4 (DS) SINGAPORE 271004,271004,23807.4450108353,32254.034994062,1.30796826743788,103.795646469655,103.795646469655,Buona Vista
405,PCF SPARKLETOTS PRESCHOOL @ BUONA VISTA 4 (DS),4,HOLLAND CLOSE,PCF SPARKLETOTS PRESCHOOL @ BUONA VISTA 4 (DS),4 HOLLAND CLOSE PCF SPARKLETOTS PRESCHOOL @ BUONA VISTA 4 (DS) SINGAPORE 271004,271004,23807.4450108353,32254.034994062,1.30796826743788,103.795646469655,103.795646469655,Buona Vista
406,BUONA VISTA GARDENS,4,ZEHNDER ROAD,BUONA VISTA GARDENS,4 ZEHNDER ROAD BUONA VISTA GARDENS SINGAPORE 117688,117688,22777.0517456047,29526.6839296501,1.28330291475091,103.786388349806,103.786388349806,Buona Vista
407,OCBC BUONA VISTA MRT STATION,100,NORTH BUONA VISTA ROAD,OCBC BUONA VISTA MRT STATION,100 NORTH BUONA VISTA ROAD OCBC BUONA VISTA MRT STATION SINGAPORE 139345,139345,23189.1888145236,32176.2734868266,1.30726492984418,103.790091155395,103.790091155395,Buona Vista
408,BUONA VISTA MRT STATION (EW21),100,NORTH BUONA VISTA ROAD,BUONA VISTA MRT STATION (EW21),100 NORTH BUONA VISTA ROAD BUONA VISTA MRT STATION (EW21) SINGAPORE 139345,139345,23207.2578019593,32171.7150982097,1.3072237082044,103.790253514502,103.790253514502,Buona Vista
409,UOB BUONA VISTA MRT STATION,100,NORTH BUONA VISTA ROAD,UOB BUONA VISTA MRT STATION,100 NORTH BUONA VISTA ROAD UOB BUONA VISTA MRT STATION SINGAPORE 139345,139345,23207.2578019593,32171.7150982097,1.3072237082044,103.790253514502,103.790253514502,Buona Vista
410,MERIDIAN 38,38,LORONG M TELOK KURAU,MERIDIAN 38,38 LORONG M TELOK KURAU MERIDIAN 38 SINGAPORE 425317,425317,36629.3285507215,32512.8020101897,1.31030754275962,103.910857272453,103.910857272453,Meridian
411,MERIDIAN 38,,NIL,MERIDIAN 38,MERIDIAN 38,NIL,36629.8901731595,32519.6735689249,1.31036968649866,103.91086232081,103.91086232081,Meridian
412,MERIDIAN LRT STATION (PE2),60,PUNGGOL FIELD,MERIDIAN LRT STATION (PE2),60 PUNGGOL FIELD MERIDIAN LRT STATION (PE2) SINGAPORE 828857,828857,36416.793337211,42089.08824775,1.3969120498774,103.908950224489,103.908950224489,Meridian
413,MERIDIAN PRIMARY SCHOOL,20,PASIR RIS STREET 71,MERIDIAN PRIMARY SCHOOL,20 PASIR RIS STREET 71 MERIDIAN PRIMARY SCHOOL SINGAPORE 518798,518798,39303.5458344575,39724.6885971073,1.37552831658484,103.934889078518,103.934889078518,Meridian
414,MERIDIAN SECONDARY SCHOOL,31,PASIR RIS STREET 51,MERIDIAN SECONDARY SCHOOL,31 PASIR RIS STREET 51 MERIDIAN SECONDARY SCHOOL SINGAPORE 518901,518901,40870.9016361358,38809.035507232,1.3672468492013,103.948972483629,103.948972483629,Meridian
415,OASIS,87,SCIENCE PARK DRIVE,OASIS,87 SCIENCE PARK DRIVE OASIS SINGAPORE 118260,118260,23220.1689736294,30017.7028146852,1.28774358639098,103.790369856119,103.790369856119,Oasis
416,OASIS @ ELIAS,68,ELIAS ROAD,OASIS @ ELIAS,68 ELIAS ROAD OASIS @ ELIAS SINGAPORE 519942,519942,40104.9537515827,39912.7768747248,1.37722899730585,103.942090374434,103.942090374434,Oasis
417,OASIS @ ELIAS,66,ELIAS ROAD,OASIS @ ELIAS,66 ELIAS ROAD OASIS @ ELIAS SINGAPORE 519941,519941,40135.7803914761,39901.2714995574,1.37712493426284,103.942367369104,103.942367369104,Oasis
418,OASIS @ ELIAS,62,ELIAS ROAD,OASIS @ ELIAS,62 ELIAS ROAD OASIS @ ELIAS SINGAPORE 519939,519939,40079.3281501364,39867.3073712774,1.37681779868428,103.941860091485,103.941860091485,Oasis
419,OASIS @ ELIAS,60,ELIAS ROAD,OASIS @ ELIAS,60 ELIAS ROAD OASIS @ ELIAS SINGAPORE 519938,519938,40054.5415469306,39882.7145316899,1.37695714547341,103.941637372458,103.941637372458,Oasis
420,OASIS @ ELIAS,64,ELIAS ROAD,OASIS @ ELIAS,64 ELIAS ROAD OASIS @ ELIAS SINGAPORE 519940,519940,40107.0100675924,39862.2206852734,1.37677178519203,103.942108831178,103.942108831178,Oasis
421,OASIS @ ELIAS,,NIL,OASIS @ ELIAS,OASIS @ ELIAS,NIL,40088.1418843148,39900.315606365,1.37711630918746,103.941939302685,103.941939302685,Oasis
422,OASIS @ ELIAS,70,ELIAS ROAD,OASIS @ ELIAS,70 ELIAS ROAD OASIS @ ELIAS SINGAPORE 519943,519943,40082.8299439764,39929.426566137,1.37737958000711,103.941891583018,103.941891583018,Oasis
423,OASIS @ ELIAS,72,ELIAS ROAD,OASIS @ ELIAS,72 ELIAS ROAD OASIS @ ELIAS SINGAPORE 519944,519944,40050.6334054088,39936.9723442085,1.37744783444568,103.941602277158,103.941602277158,Oasis
424,OASIS @ MULBERRY,63,CHEMPAKA AVENUE,OASIS @ MULBERRY,63 CHEMPAKA AVENUE OASIS @ MULBERRY SINGAPORE 349672,349672,32968.0986208422,34968.7391565703,1.33251897038638,103.877959755187,103.877959755187,Oasis
425,DBS GARDENS BY THE BAY,18,MARINA GARDENS DRIVE,DBS GARDENS BY THE BAY,18 MARINA GARDENS DRIVE DBS GARDENS BY THE BAY SINGAPORE 018953,018953,31516.5079895202,29606.1152004749,1.28402150049556,103.864915787491,103.864915787491,Gardens by The Bay
426,GARDENS BY THE BAY (FLOWER DOME),18,MARINA GARDENS DRIVE,GARDENS BY THE BAY (FLOWER DOME),18 MARINA GARDENS DRIVE GARDENS BY THE BAY (FLOWER DOME) SINGAPORE 018953,018953,31496.4290263578,29672.345120471,1.28462046280109,103.864735377434,103.864735377434,Gardens by The Bay
427,GARDENS BY THE BAY (SUN PAVILION),18,MARINA GARDENS DRIVE,GARDENS BY THE BAY (SUN PAVILION),18 MARINA GARDENS DRIVE GARDENS BY THE BAY (SUN PAVILION) SINGAPORE 018953,018953,31708.7539984528,29494.1621918641,1.28300901486791,103.866643180247,103.866643180247,Gardens by The Bay
428,OCBC GARDENS BY THE BAY - THE CANOPY,18,MARINA GARDENS DRIVE,OCBC GARDENS BY THE BAY - THE CANOPY,18 MARINA GARDENS DRIVE OCBC GARDENS BY THE BAY - THE CANOPY SINGAPORE 018953,018953,31516.5079895202,29606.1152004749,1.28402150049556,103.864915787491,103.864915787491,Gardens by The Bay
429,GARDENS BY THE BAY,18,MARINA GARDENS DRIVE,GARDENS BY THE BAY,18 MARINA GARDENS DRIVE GARDENS BY THE BAY SINGAPORE 018953,018953,31487.6617535334,29668.8205348384,1.28458858866312,103.864656599639,103.864656599639,Gardens by The Bay
430,GARDENS BY THE BAY (CLOUD FOREST),18,MARINA GARDENS DRIVE,GARDENS BY THE BAY (CLOUD FOREST),18 MARINA GARDENS DRIVE GARDENS BY THE BAY (CLOUD FOREST) SINGAPORE 018953,018953,31636.4701790344,29589.6979066432,1.28387301464472,103.865993692974,103.865993692974,Gardens by The Bay
431,GARDENS BY THE BAY (GB HEADQUARTERS),18,MARINA GARDENS DRIVE,GARDENS BY THE BAY (GB HEADQUARTERS),18 MARINA GARDENS DRIVE GARDENS BY THE BAY (GB HEADQUARTERS) SINGAPORE 018953,018953,31507.1942585185,29220.4013851788,1.28053324159214,103.864832057323,103.864832057323,Gardens by The Bay
432,GARDENS BY THE BAY (VISITOR CENTRE),18,MARINA GARDENS DRIVE,GARDENS BY THE BAY (VISITOR CENTRE),18 MARINA GARDENS DRIVE GARDENS BY THE BAY (VISITOR CENTRE) SINGAPORE 018953,018953,31595.2834439427,29386.3278991375,1.28203381265422,103.865623590955,103.865623590955,Gardens by The Bay
433,GARDENS BY THE BAY MRT STATION (TE22),11,MARINA MALL,GARDENS BY THE BAY MRT STATION (TE22),11 MARINA MALL GARDENS BY THE BAY MRT STATION (TE22) SINGAPORE 019396,019396,31799.0721787345,28994.1708776113,1.27848725876303,103.867454664421,103.867454664421,Gardens by The Bay
434,GARDENS BY THE BAY MRT STATION EXIT 1,,NIL,GARDENS BY THE BAY MRT STATION EXIT 1,GARDENS BY THE BAY MRT STATION EXIT 1,NIL,31947.1848038249,29222.8009703923,1.28055489064088,103.868785539995,103.868785539995,Gardens by The Bay
435,JURONG TOWN HALL ROAD,,JURONG TOWN HALL ROAD,NIL,JURONG TOWN HALL ROAD,NIL,17574.1508779499,34908.7756591475,1.33197699510215,103.739633969618,103.739633969618,Jurong Town Hall
436,JURONG TOWN HALL,9,JURONG TOWN HALL ROAD,JURONG TOWN HALL,9 JURONG TOWN HALL ROAD JURONG TOWN HALL SINGAPORE 609431,609431,17829.6343951924,34549.00990876,1.32872179304039,103.74193226099,103.74193226099,Jurong Town Hall
437,CITYBOUND AYE AFTER JURONG TOWN HALL - ERP(74),,NIL,CITYBOUND AYE AFTER JURONG TOWN HALL - ERP(74),CITYBOUND AYE AFTER JURONG TOWN HALL - ERP(74),NIL,19706.6468345588,33173.5493100844,1.31628319434693,103.75879860857,103.75879860857,Jurong Town Hall
438,TANJONG KATONG ROAD,,TANJONG KATONG ROAD,NIL,TANJONG KATONG ROAD,NIL,34855.7863472552,32299.3115310313,1.30838100845761,103.894919104455,103.894919104455,Tanjong Katong
439,TANJONG KATONG ROAD SOUTH,,TANJONG KATONG ROAD SOUTH,NIL,TANJONG KATONG ROAD SOUTH,NIL,35170.5291673641,31296.1962880567,1.29930371065973,103.897749425105,103.897749425105,Tanjong Katong
440,SPC TANJONG KATONG,1,SWANAGE ROAD,SPC TANJONG KATONG,1 SWANAGE ROAD SPC TANJONG KATONG SINGAPORE 437168,437168,34811.7538958052,32288.9489316717,1.30828355063205,103.894525442548,103.894525442548,Tanjong Katong
441,UOB SPC TANJONG KATONG,1,SWANAGE ROAD,UOB SPC TANJONG KATONG,1 SWANAGE ROAD UOB SPC TANJONG KATONG SINGAPORE 437168,437168,34811.7538958052,32288.9489014037,1.30828355035831,103.894525442548,103.894525442548,Tanjong Katong
442,TANJONG KATONG MRT STATION (TE25),2,AMBER ROAD,TANJONG KATONG MRT STATION (TE25),2 AMBER ROAD TANJONG KATONG MRT STATION (TE25) SINGAPORE 439846,439846,35128.2119915774,31297.7308216039,1.29931925742524,103.897368742078,103.897368742078,Tanjong Katong
443,AFTERSCHOOL @ TANJONG KATONG PRIMARY SCHOOL,10,SERAYA ROAD,AFTERSCHOOL @ TANJONG KATONG PRIMARY SCHOOL,10 SERAYA ROAD AFTERSCHOOL @ TANJONG KATONG PRIMARY SCHOOL SINGAPORE 437259,437259,35421.0272507127,31924.2153390218,1.30498489044822,103.899999965407,103.899999965407,Tanjong Katong
444,TANJONG KATONG PRIMARY SCHOOL,10,SERAYA ROAD,TANJONG KATONG PRIMARY SCHOOL,10 SERAYA ROAD TANJONG KATONG PRIMARY SCHOOL SINGAPORE 437259,437259,35431.3472408336,31952.5175080001,1.30524084264265,103.900092702031,103.900092702031,Tanjong Katong
445,TANJONG KATONG SECONDARY SCHOOL,130,HAIG ROAD,TANJONG KATONG SECONDARY SCHOOL,130 HAIG ROAD TANJONG KATONG SECONDARY SCHOOL SINGAPORE 438796,438796,35112.2101863576,32338.8930419572,1.30873515955341,103.897225196199,103.897225196199,Tanjong Katong
446,ESSO TANJONG KATONG B,189,TANJONG KATONG ROAD,ESSO TANJONG KATONG B,189 TANJONG KATONG ROAD ESSO TANJONG KATONG B SINGAPORE 436991,436991,34801.836863352,32621.0306039397,1.31128678062405,103.894436406046,103.894436406046,Tanjong Katong
447,DBS EXXONMOBIL TANJONG KATONG ROAD,189,TANJONG KATONG ROAD,DBS EXXONMOBIL TANJONG KATONG ROAD,189 TANJONG KATONG ROAD DBS EXXONMOBIL TANJONG KATONG ROAD SINGAPORE 436991,436991,34808.2520111604,32616.790392369,1.31124843225194,103.89449404833,103.89449404833,Tanjong Katong
448,WEST COAST PARK (ROAD),,WEST COAST PARK (ROAD),NIL,WEST COAST PARK (ROAD),NIL,19295.70045065,33306.0103650196,1.31748051028135,103.755106332065,103.755106332065,West Coast
449,WEST COAST AVENUE,,WEST COAST AVENUE,NIL,WEST COAST AVENUE,NIL,19496.5624402332,32916.6445136537,1.31395909233167,103.756911393534,103.756911393534,West Coast
450,WEST COAST RISE,,WEST COAST RISE,NIL,WEST COAST RISE,NIL,19143.9473864558,33154.2554279019,1.31610890518529,103.753742776783,103.753742776783,West Coast
451,WEST COAST LANE,,WEST COAST LANE,NIL,WEST COAST LANE,NIL,19700.3548162923,32801.8149725251,1.31292143262693,103.758742505178,103.758742505178,West Coast
452,WEST COAST TERRACE,,WEST COAST TERRACE,NIL,WEST COAST TERRACE,NIL,19551.8495055357,32960.6008971239,1.31435675714157,103.757408079976,103.757408079976,West Coast
453,WEST COAST VALE,,WEST COAST VALE,NIL,WEST COAST VALE,NIL,19046.3514152016,33410.3395693403,1.31842606930406,103.752865961606,103.752865961606,West Coast
454,WEST COAST WAY,,WEST COAST WAY,NIL,WEST COAST WAY,NIL,19367.4769383391,33114.0577616851,1.31574531314818,103.75575098982,103.75575098982,West Coast
455,WEST COAST HIGHWAY,,WEST COAST HIGHWAY,NIL,WEST COAST HIGHWAY,NIL,22208.3359019839,29513.3698697809,1.28324337016977,103.781231384962,103.781231384962,West Coast
456,WEST COAST CRESCENT,,WEST COAST CRESCENT,NIL,WEST COAST CRESCENT,NIL,20462.6036915836,31170.1394977152,1.29816736196542,103.765590769173,103.765590769173,West Coast
457,WEST COAST VIEW,,WEST COAST VIEW,NIL,WEST COAST VIEW,NIL,20555.0193637359,30784.2973097145,1.29467540422297,103.766421148823,103.766421148823,West Coast
458,KUPANG LRT STATION (SW3),60,FERNVALE STREET,KUPANG LRT STATION (SW3),60 FERNVALE STREET KUPANG LRT STATION (SW3) SINGAPORE 797697,797697,33334.8164311657,42232.8410119303,1.39821283031379,103.881256222255,103.881256222255,Kupang
459,BUKIT BATOK WEST AVENUE 2,,BUKIT BATOK WEST AVENUE 2,NIL,BUKIT BATOK WEST AVENUE 2,NIL,18423.8757692999,37745.6840859707,1.35763046579871,103.747270873757,103.747270873757,Bukit Batok West
